[
    {
        "name": "Madang Airport (MAG)",
        "Loca_nombre": "Madang",
        "Pais_nombre": "Papua New Guinea",
        "Aero_iata": "MAG",
        "latitude": -5.20707988739,
        "longitude": 145.789001465
    },
    {
        "name": "Mount Hagen Kagamuga Airport (HGU)",
        "Loca_nombre": "Mount Hagen",
        "Pais_nombre": "Papua New Guinea",
        "Aero_iata": "HGU",
        "latitude": -5.826789855957031,
        "longitude": 144.29600524902344
    },
    {
        "name": "Nadzab Airport (LAE)",
        "Loca_nombre": "Nadzab",
        "Pais_nombre": "Papua New Guinea",
        "Aero_iata": "LAE",
        "latitude": -6.569803,
        "longitude": 146.725977
    },
    {
        "name": "Port Moresby Jacksons International Airport (POM)",
        "Loca_nombre": "Port Moresby",
        "Pais_nombre": "Papua New Guinea",
        "Aero_iata": "POM",
        "latitude": -9.443380355834961,
        "longitude": 147.22000122070312
    },
    {
        "name": "Wewak International Airport (WWK)",
        "Loca_nombre": "Wewak",
        "Pais_nombre": "Papua New Guinea",
        "Aero_iata": "WWK",
        "latitude": -3.58383011818,
        "longitude": 143.669006348
    },
    {
        "name": "Narsarsuaq Airport (UAK)",
        "Loca_nombre": "Narssarssuaq",
        "Pais_nombre": "Greenland",
        "Aero_iata": "UAK",
        "latitude": 61.1604995728,
        "longitude": -45.4259986877
    },
    {
        "name": "Godthaab / Nuuk Airport (GOH)",
        "Loca_nombre": "Godthaab",
        "Pais_nombre": "Greenland",
        "Aero_iata": "GOH",
        "latitude": 64.19090271,
        "longitude": -51.6781005859
    },
    {
        "name": "Kangerlussuaq Airport (SFJ)",
        "Loca_nombre": "Sondrestrom",
        "Pais_nombre": "Greenland",
        "Aero_iata": "SFJ",
        "latitude": 67.0122218992,
        "longitude": -50.7116031647
    },
    {
        "name": "Thule Air Base (THU)",
        "Loca_nombre": "Thule",
        "Pais_nombre": "Greenland",
        "Aero_iata": "THU",
        "latitude": 76.5311965942,
        "longitude": -68.7032012939
    },
    {
        "name": "Akureyri Airport (AEY)",
        "Loca_nombre": "Akureyri",
        "Pais_nombre": "Iceland",
        "Aero_iata": "AEY",
        "latitude": 65.66000366210938,
        "longitude": -18.07270050048828
    },
    {
        "name": "Egilsstaðir Airport (EGS)",
        "Loca_nombre": "Egilsstadir",
        "Pais_nombre": "Iceland",
        "Aero_iata": "EGS",
        "latitude": 65.2833023071289,
        "longitude": -14.401399612426758
    },
    {
        "name": "Hornafjörður Airport (HFN)",
        "Loca_nombre": "Hofn",
        "Pais_nombre": "Iceland",
        "Aero_iata": "HFN",
        "latitude": 64.295601,
        "longitude": -15.2272
    },
    {
        "name": "Húsavík Airport (HZK)",
        "Loca_nombre": "Husavik",
        "Pais_nombre": "Iceland",
        "Aero_iata": "HZK",
        "latitude": 65.952301,
        "longitude": -17.426001
    },
    {
        "name": "Ísafjörður Airport (IFJ)",
        "Loca_nombre": "Isafjordur",
        "Pais_nombre": "Iceland",
        "Aero_iata": "IFJ",
        "latitude": 66.05809783935547,
        "longitude": -23.135299682617188
    },
    {
        "name": "Keflavik International Airport (KEF)",
        "Loca_nombre": "Keflavik",
        "Pais_nombre": "Iceland",
        "Aero_iata": "KEF",
        "latitude": 63.985000610352,
        "longitude": -22.605600357056
    },
    {
        "name": "Patreksfjörður Airport (PFJ)",
        "Loca_nombre": "Patreksfjordur",
        "Pais_nombre": "Iceland",
        "Aero_iata": "PFJ",
        "latitude": 65.555801,
        "longitude": -23.965
    },
    {
        "name": "Reykjavik Airport (RKV)",
        "Loca_nombre": "Reykjavik",
        "Pais_nombre": "Iceland",
        "Aero_iata": "RKV",
        "latitude": 64.1299972534,
        "longitude": -21.9405994415
    },
    {
        "name": "Siglufjörður Airport (SIJ)",
        "Loca_nombre": "Siglufjordur",
        "Pais_nombre": "Iceland",
        "Aero_iata": "SIJ",
        "latitude": 66.133301,
        "longitude": -18.9167
    },
    {
        "name": "Vestmannaeyjar Airport (VEY)",
        "Loca_nombre": "Vestmannaeyjar",
        "Pais_nombre": "Iceland",
        "Aero_iata": "VEY",
        "latitude": 63.42430114746094,
        "longitude": -20.278900146484375
    },
    {
        "name": "Sault Ste Marie Airport (YAM)",
        "Loca_nombre": "Sault Sainte Marie",
        "Pais_nombre": "Canada",
        "Aero_iata": "YAM",
        "latitude": 46.48500061035156,
        "longitude": -84.5093994140625
    },
    
    {
        "name": "St. Anthony Airport (YAY)",
        "Loca_nombre": "St. Anthony",
        "Pais_nombre": "Canada",
        "Aero_iata": "YAY",
        "latitude": 51.3918991089,
        "longitude": -56.083099365200006
    },
    {
        "name": "Tofino / Long Beach Airport (YAZ)",
        "Loca_nombre": "Tofino",
        "Pais_nombre": "Canada",
        "Aero_iata": "YAZ",
        "latitude": 49.079833,
        "longitude": -125.775583
    },
    {
        "name": "Kugaaruk Airport (YBB)",
        "Loca_nombre": "Pelly Bay",
        "Pais_nombre": "Canada",
        "Aero_iata": "YBB",
        "latitude": 68.534401,
        "longitude": -89.808098
    },
    {
        "name": "Baie Comeau Airport (YBC)",
        "Loca_nombre": "Baie Comeau",
        "Pais_nombre": "Canada",
        "Aero_iata": "YBC",
        "latitude": 49.13249969482422,
        "longitude": -68.20439910888672
    },
    {
        "name": "CFB Bagotville (YBG)",
        "Loca_nombre": "Bagotville",
        "Pais_nombre": "Canada",
        "Aero_iata": "YBG",
        "latitude": 48.33060073852539,
        "longitude": -70.99639892578125
    },
    {
        "name": "Baker Lake Airport (YBK)",
        "Loca_nombre": "Baker Lake",
        "Pais_nombre": "Canada",
        "Aero_iata": "YBK",
        "latitude": 64.29889678960001,
        "longitude": -96.077796936
    },
    {
        "name": "Campbell River Airport (YBL)",
        "Loca_nombre": "Campbell River",
        "Pais_nombre": "Canada",
        "Aero_iata": "YBL",
        "latitude": 49.950801849365234,
        "longitude": -125.27100372314453
    },
    {
        "name": "Brandon Municipal Airport (YBR)",
        "Loca_nombre": "Brandon",
        "Pais_nombre": "Canada",
        "Aero_iata": "YBR",
        "latitude": 49.91,
        "longitude": -99.951897
    },
    {
        "name": "Cambridge Bay Airport (YCB)",
        "Loca_nombre": "Cambridge Bay",
        "Pais_nombre": "Canada",
        "Aero_iata": "YCB",
        "latitude": 69.1081008911,
        "longitude": -105.138000488
    },
    {
        "name": "Nanaimo Airport (YCD)",
        "Loca_nombre": "Nanaimo",
        "Pais_nombre": "Canada",
        "Aero_iata": "YCD",
        "latitude": 49.054970224899996,
        "longitude": -123.869862556
    },
    {
        "name": "Castlegar/West Kootenay Regional Airport (YCG)",
        "Loca_nombre": "Castlegar",
        "Pais_nombre": "Canada",
        "Aero_iata": "YCG",
        "latitude": 49.2963981628,
        "longitude": -117.632003784
    },
    {
        "name": "Miramichi Airport (YCH)",
        "Loca_nombre": "Chatham",
        "Pais_nombre": "Canada",
        "Aero_iata": "YCH",
        "latitude": 47.007801,
        "longitude": -65.449203
    },
    {
        "name": "Charlo Airport (YCL)",
        "Loca_nombre": "Charlo",
        "Pais_nombre": "Canada",
        "Aero_iata": "YCL",
        "latitude": 47.990799,
        "longitude": -66.330299
    },
    {
        "name": "Kugluktuk Airport (YCO)",
        "Loca_nombre": "Coppermine",
        "Pais_nombre": "Canada",
        "Aero_iata": "YCO",
        "latitude": 67.816704,
        "longitude": -115.143997
    },
    {
        "name": "Coronation Airport (YCT)",
        "Loca_nombre": "Coronation",
        "Pais_nombre": "Canada",
        "Aero_iata": "YCT",
        "latitude": 52.0750007629,
        "longitude": -111.444999695
    },
    {
        "name": "Chilliwack Airport (YCW)",
        "Loca_nombre": "Chilliwack",
        "Pais_nombre": "Canada",
        "Aero_iata": "YCW",
        "latitude": 49.1528015137,
        "longitude": -121.939002991
    },
    {
        "name": "Clyde River Airport (YCY)",
        "Loca_nombre": "Clyde River",
        "Pais_nombre": "Canada",
        "Aero_iata": "YCY",
        "latitude": 70.4860992432,
        "longitude": -68.5167007446
    },
    {
        "name": "Coral Harbour Airport (YZS)",
        "Loca_nombre": "Coral Harbour",
        "Pais_nombre": "Canada",
        "Aero_iata": "YZS",
        "latitude": 64.1932983398,
        "longitude": -83.3593978882
    },
    {
        "name": "Dawson City Airport (YDA)",
        "Loca_nombre": "Dawson",
        "Pais_nombre": "Canada",
        "Aero_iata": "YDA",
        "latitude": 64.04309844970703,
        "longitude": -139.1280059814453
    },
    {
        "name": "Burwash Airport (YDB)",
        "Loca_nombre": "Burwash",
        "Pais_nombre": "Canada",
        "Aero_iata": "YDB",
        "latitude": 61.37110137939453,
        "longitude": -139.04100036621094
    },
    {
        "name": "Deer Lake Airport (YDF)",
        "Loca_nombre": "Deer Lake",
        "Pais_nombre": "Canada",
        "Aero_iata": "YDF",
        "latitude": 49.21080017089844,
        "longitude": -57.39139938354492
    },
    {
        "name": "Dease Lake Airport (YDL)",
        "Loca_nombre": "Dease Lake",
        "Pais_nombre": "Canada",
        "Aero_iata": "YDL",
        "latitude": 58.4221992493,
        "longitude": -130.031997681
    },
    {
        "name": "Dauphin Barker Airport (YDN)",
        "Loca_nombre": "Dauphin",
        "Pais_nombre": "Canada",
        "Aero_iata": "YDN",
        "latitude": 51.100799560546875,
        "longitude": -100.052001953125
    },
    {
        "name": "Dawson Creek Airport (YDQ)",
        "Loca_nombre": "Dawson Creek",
        "Pais_nombre": "Canada",
        "Aero_iata": "YDQ",
        "latitude": 55.7422981262207,
        "longitude": -120.18299865722656
    },
    {
        "name": "Edmonton International Airport (YEG)",
        "Loca_nombre": "Edmonton",
        "Pais_nombre": "Canada",
        "Aero_iata": "YEG",
        "latitude": 53.309700012200004,
        "longitude": -113.580001831
    },
    {
        "name": "Arviat Airport (YEK)",
        "Loca_nombre": "Eskimo Point",
        "Pais_nombre": "Canada",
        "Aero_iata": "YEK",
        "latitude": 61.0942001343,
        "longitude": -94.07080078119999
    },
    {
        "name": "Estevan Airport (YEN)",
        "Loca_nombre": "Estevan",
        "Pais_nombre": "Canada",
        "Aero_iata": "YEN",
        "latitude": 49.2103004456,
        "longitude": -102.966003418
    },
    {
        "name": "Edson Airport (YET)",
        "Loca_nombre": "Edson",
        "Pais_nombre": "Canada",
        "Aero_iata": "YET",
        "latitude": 53.578899383499994,
        "longitude": -116.464996338
    },
    {
        "name": "Eureka Airport (YEU)",
        "Loca_nombre": "Eureka",
        "Pais_nombre": "Canada",
        "Aero_iata": "YEU",
        "latitude": 79.9946975708,
        "longitude": -85.814201355
    },
    {
        "name": "Inuvik Mike Zubko Airport (YEV)",
        "Loca_nombre": "Inuvik",
        "Pais_nombre": "Canada",
        "Aero_iata": "YEV",
        "latitude": 68.30419921880001,
        "longitude": -133.483001709
    },
    {
        "name": "Iqaluit Airport (YFB)",
        "Loca_nombre": "Iqaluit",
        "Pais_nombre": "Canada",
        "Aero_iata": "YFB",
        "latitude": 63.756402,
        "longitude": -68.555801
    },
    {
        "name": "Fredericton Airport (YFC)",
        "Loca_nombre": "Fredericton",
        "Pais_nombre": "Canada",
        "Aero_iata": "YFC",
        "latitude": 45.868900299072266,
        "longitude": -66.53720092773438
    },
    {
        "name": "Forestville Airport (YFE)",
        "Loca_nombre": "Forestville",
        "Pais_nombre": "Canada",
        "Aero_iata": "YFE",
        "latitude": 48.74610137939453,
        "longitude": -69.09719848632812
    },
    {
        "name": "Flin Flon Airport (YFO)",
        "Loca_nombre": "Flin Flon",
        "Pais_nombre": "Canada",
        "Aero_iata": "YFO",
        "latitude": 54.6781005859375,
        "longitude": -101.68199920654297
    },
    {
        "name": "Fort Resolution Airport (YFR)",
        "Loca_nombre": "Fort Resolution",
        "Pais_nombre": "Canada",
        "Aero_iata": "YFR",
        "latitude": 61.1808013916,
        "longitude": -113.690002441
    },
    {
        "name": "Fort Simpson Airport (YFS)",
        "Loca_nombre": "Fort Simpson",
        "Pais_nombre": "Canada",
        "Aero_iata": "YFS",
        "latitude": 61.76020050048828,
        "longitude": -121.23699951171875
    },
    {
        "name": "Kingston Norman Rogers Airport (YGK)",
        "Loca_nombre": "Kingston",
        "Pais_nombre": "Canada",
        "Aero_iata": "YGK",
        "latitude": 44.22529983520508,
        "longitude": -76.5969009399414
    },
    {
        "name": "La Grande Rivière Airport (YGL)",
        "Loca_nombre": "La Grande Riviere",
        "Pais_nombre": "Canada",
        "Aero_iata": "YGL",
        "latitude": 53.625301361083984,
        "longitude": -77.7042007446289
    },
    {
        "name": "Gaspé (Michel-Pouliot) Airport (YGP)",
        "Loca_nombre": "Gaspe",
        "Pais_nombre": "Canada",
        "Aero_iata": "YGP",
        "latitude": 48.7752990723,
        "longitude": -64.4785995483
    },
    {
        "name": "Geraldton Greenstone Regional Airport (YGQ)",
        "Loca_nombre": "Geraldton",
        "Pais_nombre": "Canada",
        "Aero_iata": "YGQ",
        "latitude": 49.77830123901367,
        "longitude": -86.93939971923828
    },
    {
        "name": "Îles-de-la-Madeleine Airport (YGR)",
        "Loca_nombre": "Iles De La Madeleine",
        "Pais_nombre": "Canada",
        "Aero_iata": "YGR",
        "latitude": 47.42470169067383,
        "longitude": -61.778099060058594
    },
    {
        "name": "Hudson Bay Airport (YHB)",
        "Loca_nombre": "Hudson Bay",
        "Pais_nombre": "Canada",
        "Aero_iata": "YHB",
        "latitude": 52.8166999817,
        "longitude": -102.310997009
    },
    {
        "name": "Dryden Regional Airport (YHD)",
        "Loca_nombre": "Dryden",
        "Pais_nombre": "Canada",
        "Aero_iata": "YHD",
        "latitude": 49.831699,
        "longitude": -92.744202
    },
    {
        "name": "Ulukhaktok Holman Airport (YHI)",
        "Loca_nombre": "Holman Island",
        "Pais_nombre": "Canada",
        "Aero_iata": "YHI",
        "latitude": 70.76280212402344,
        "longitude": -117.80599975585938
    },
    {
        "name": "Gjoa Haven Airport (YHK)",
        "Loca_nombre": "Gjoa Haven",
        "Pais_nombre": "Canada",
        "Aero_iata": "YHK",
        "latitude": 68.635597229,
        "longitude": -95.84970092770001
    },
    {
        "name": "John C. Munro Hamilton International Airport (YHM)",
        "Loca_nombre": "Hamilton",
        "Pais_nombre": "Canada",
        "Aero_iata": "YHM",
        "latitude": 43.173599243199995,
        "longitude": -79.93499755859999
    },
    {
        "name": "Montréal / Saint-Hubert Airport (YHU)",
        "Loca_nombre": "Montreal",
        "Pais_nombre": "Canada",
        "Aero_iata": "YHU",
        "latitude": 45.5175018311,
        "longitude": -73.4169006348
    },
    {
        "name": "Hay River / Merlyn Carter Airport (YHY)",
        "Loca_nombre": "Hay River",
        "Pais_nombre": "Canada",
        "Aero_iata": "YHY",
        "latitude": 60.8396987915,
        "longitude": -115.782997131
    },
    {
        "name": "Halifax / Stanfield International Airport (YHZ)",
        "Loca_nombre": "Halifax",
        "Pais_nombre": "Canada",
        "Aero_iata": "YHZ",
        "latitude": 44.8807983398,
        "longitude": -63.5085983276
    },
    {
        "name": "Atikokan Municipal Airport (YIB)",
        "Loca_nombre": "Atikokan",
        "Pais_nombre": "Canada",
        "Aero_iata": "YIB",
        "latitude": 48.7738990784,
        "longitude": -91.6386032104
    },
    {
        "name": "Pond Inlet Airport (YIO)",
        "Loca_nombre": "Pond Inlet",
        "Pais_nombre": "Canada",
        "Aero_iata": "YIO",
        "latitude": 72.6832962036,
        "longitude": -77.9666976929
    },
    {
        "name": "St Jean Airport (YJN)",
        "Loca_nombre": "St. Jean",
        "Pais_nombre": "Canada",
        "Aero_iata": "YJN",
        "latitude": 45.29439926147461,
        "longitude": -73.28109741210938
    },
    {
        "name": "Stephenville Airport (YJT)",
        "Loca_nombre": "Stephenville",
        "Pais_nombre": "Canada",
        "Aero_iata": "YJT",
        "latitude": 48.5442008972168,
        "longitude": -58.54999923706055
    },
    {
        "name": "Kamloops Airport (YKA)",
        "Loca_nombre": "Kamloops",
        "Pais_nombre": "Canada",
        "Aero_iata": "YKA",
        "latitude": 50.7022018433,
        "longitude": -120.444000244
    },
    {
        "name": "Waterloo Airport (YKF)",
        "Loca_nombre": "Waterloo",
        "Pais_nombre": "Canada",
        "Aero_iata": "YKF",
        "latitude": 43.460800170899994,
        "longitude": -80.3786010742
    },
    {
        "name": "Schefferville Airport (YKL)",
        "Loca_nombre": "Schefferville",
        "Pais_nombre": "Canada",
        "Aero_iata": "YKL",
        "latitude": 54.805301666259766,
        "longitude": -66.8052978515625
    },
    {
        "name": "Kindersley Airport (YKY)",
        "Loca_nombre": "Kindersley",
        "Pais_nombre": "Canada",
        "Aero_iata": "YKY",
        "latitude": 51.5175018311,
        "longitude": -109.180999756
    },
    {
        "name": "Buttonville Municipal Airport (YKZ)",
        "Loca_nombre": "Toronto",
        "Pais_nombre": "Canada",
        "Aero_iata": "YKZ",
        "latitude": 43.86220169067383,
        "longitude": -79.37000274658203
    },
    {
        "name": "Chapleau Airport (YLD)",
        "Loca_nombre": "Chapleau",
        "Pais_nombre": "Canada",
        "Aero_iata": "YLD",
        "latitude": 47.81999969482422,
        "longitude": -83.3467025756836
    },
    {
        "name": "Meadow Lake Airport (YLJ)",
        "Loca_nombre": "Meadow Lake",
        "Pais_nombre": "Canada",
        "Aero_iata": "YLJ",
        "latitude": 54.125301361083984,
        "longitude": -108.52300262451172
    },
    {
        "name": "Lloydminster Airport (YLL)",
        "Loca_nombre": "Lloydminster",
        "Pais_nombre": "Canada",
        "Aero_iata": "YLL",
        "latitude": 53.309200286865234,
        "longitude": -110.072998046875
    },
    {
        "name": "Alert Airport (YLT)",
        "Loca_nombre": "Alert",
        "Pais_nombre": "Canada",
        "Aero_iata": "YLT",
        "latitude": 82.51779937740001,
        "longitude": -62.2806015015
    },
    {
        "name": "Kelowna International Airport (YLW)",
        "Loca_nombre": "Kelowna",
        "Pais_nombre": "Canada",
        "Aero_iata": "YLW",
        "latitude": 49.9561004639,
        "longitude": -119.377998352
    },
    {
        "name": "Mayo Airport (YMA)",
        "Loca_nombre": "Mayo",
        "Pais_nombre": "Canada",
        "Aero_iata": "YMA",
        "latitude": 63.61640167236328,
        "longitude": -135.8679962158203
    },
    {
        "name": "Moose Jaw Air Vice Marshal C. M. McEwen Airport (YMJ)",
        "Loca_nombre": "Moose Jaw",
        "Pais_nombre": "Canada",
        "Aero_iata": "YMJ",
        "latitude": 50.330299377441406,
        "longitude": -105.55899810791016
    },
    {
        "name": "Fort McMurray Airport (YMM)",
        "Loca_nombre": "Fort Mcmurray",
        "Pais_nombre": "Canada",
        "Aero_iata": "YMM",
        "latitude": 56.653301239,
        "longitude": -111.222000122
    },
    {
        "name": "Moosonee Airport (YMO)",
        "Loca_nombre": "Moosonee",
        "Pais_nombre": "Canada",
        "Aero_iata": "YMO",
        "latitude": 51.291099548339844,
        "longitude": -80.60780334472656
    },
    {
        "name": "Maniwaki Airport (YMW)",
        "Loca_nombre": "Maniwaki",
        "Pais_nombre": "Canada",
        "Aero_iata": "YMW",
        "latitude": 46.2728004456,
        "longitude": -75.9906005859
    },
    {
        "name": "Montreal International (Mirabel) Airport (YMX)",
        "Loca_nombre": "Montreal",
        "Pais_nombre": "Canada",
        "Aero_iata": "YMX",
        "latitude": 45.679501,
        "longitude": -74.038696
    },
    {
        "name": "Natashquan Airport (YNA)",
        "Loca_nombre": "Natashquan",
        "Pais_nombre": "Canada",
        "Aero_iata": "YNA",
        "latitude": 50.189998626708984,
        "longitude": -61.78919982910156
    },
    {
        "name": "Ottawa / Gatineau Airport (YND)",
        "Loca_nombre": "Gatineau",
        "Pais_nombre": "Canada",
        "Aero_iata": "YND",
        "latitude": 45.521701812699995,
        "longitude": -75.5635986328
    },
    {
        "name": "Matagami Airport (YNM)",
        "Loca_nombre": "Matagami",
        "Pais_nombre": "Canada",
        "Aero_iata": "YNM",
        "latitude": 49.76169967651367,
        "longitude": -77.80280303955078
    },
    {
        "name": "Old Crow Airport (YOC)",
        "Loca_nombre": "Old Crow",
        "Pais_nombre": "Canada",
        "Aero_iata": "YOC",
        "latitude": 67.57060241699219,
        "longitude": -139.83900451660156
    },
    {
        "name": "CFB Cold Lake (YOD)",
        "Loca_nombre": "Cold Lake",
        "Pais_nombre": "Canada",
        "Aero_iata": "YOD",
        "latitude": 54.404998779296875,
        "longitude": -110.27899932861328
    },
    {
        "name": "High Level Airport (YOJ)",
        "Loca_nombre": "High Level",
        "Pais_nombre": "Canada",
        "Aero_iata": "YOJ",
        "latitude": 58.62139892578125,
        "longitude": -117.16500091552734
    },
    {
        "name": "Ottawa Macdonald-Cartier International Airport (YOW)",
        "Loca_nombre": "Ottawa",
        "Pais_nombre": "Canada",
        "Aero_iata": "YOW",
        "latitude": 45.3224983215332,
        "longitude": -75.66919708251953
    },
    {
        "name": "Prince Albert Glass Field (YPA)",
        "Loca_nombre": "Prince Albert",
        "Pais_nombre": "Canada",
        "Aero_iata": "YPA",
        "latitude": 53.214199066199996,
        "longitude": -105.672996521
    },
    {
        "name": "Peace River Airport (YPE)",
        "Loca_nombre": "Peace River",
        "Pais_nombre": "Canada",
        "Aero_iata": "YPE",
        "latitude": 56.226898,
        "longitude": -117.446999
    },
    {
        "name": "Southport Airport (YPG)",
        "Loca_nombre": "Portage-la-prairie",
        "Pais_nombre": "Canada",
        "Aero_iata": "YPG",
        "latitude": 49.903099,
        "longitude": -98.273817
    },
    {
        "name": "Pitt Meadows Airport (\\N)",
        "Loca_nombre": "Pitt Meadows",
        "Pais_nombre": "Canada",
        "Aero_iata": "\\N",
        "latitude": 49.21609878540039,
        "longitude": -122.70999908447266
    },
    {
        "name": "Pickle Lake Airport (YPL)",
        "Loca_nombre": "Pickle Lake",
        "Pais_nombre": "Canada",
        "Aero_iata": "YPL",
        "latitude": 51.4463996887207,
        "longitude": -90.21420288085938
    },
    {
        "name": "Port Menier Airport (YPN)",
        "Loca_nombre": "Port Menier",
        "Pais_nombre": "Canada",
        "Aero_iata": "YPN",
        "latitude": 49.83639907836914,
        "longitude": -64.2885971069336
    },
    {
        "name": "Peterborough Airport (YPQ)",
        "Loca_nombre": "Peterborough",
        "Pais_nombre": "Canada",
        "Aero_iata": "YPQ",
        "latitude": 44.22999954223633,
        "longitude": -78.36329650878906
    },
    {
        "name": "Prince Rupert Airport (YPR)",
        "Loca_nombre": "Prince Pupert",
        "Pais_nombre": "Canada",
        "Aero_iata": "YPR",
        "latitude": 54.286098480199996,
        "longitude": -130.445007324
    },
    {
        "name": "Fort Chipewyan Airport (YPY)",
        "Loca_nombre": "Fort Chipewyan",
        "Pais_nombre": "Canada",
        "Aero_iata": "YPY",
        "latitude": 58.7672004699707,
        "longitude": -111.11699676513672
    },
    {
        "name": "Muskoka Airport (YQA)",
        "Loca_nombre": "Muskoka",
        "Pais_nombre": "Canada",
        "Aero_iata": "YQA",
        "latitude": 44.974700927734375,
        "longitude": -79.30329895019531
    },
    {
        "name": "Quebec Jean Lesage International Airport (YQB)",
        "Loca_nombre": "Quebec",
        "Pais_nombre": "Canada",
        "Aero_iata": "YQB",
        "latitude": 46.7911,
        "longitude": -71.393303
    },
    {
        "name": "Red Deer Regional Airport (YQF)",
        "Loca_nombre": "Red Deer Industrial",
        "Pais_nombre": "Canada",
        "Aero_iata": "YQF",
        "latitude": 52.18220138549805,
        "longitude": -113.89399719238281
    },
    {
        "name": "Windsor Airport (YQG)",
        "Loca_nombre": "Windsor",
        "Pais_nombre": "Canada",
        "Aero_iata": "YQG",
        "latitude": 42.27560043334961,
        "longitude": -82.95559692382812
    },
    {
        "name": "Watson Lake Airport (YQH)",
        "Loca_nombre": "Watson Lake",
        "Pais_nombre": "Canada",
        "Aero_iata": "YQH",
        "latitude": 60.11640167236328,
        "longitude": -128.82200622558594
    },
    {
        "name": "Kenora Airport (YQK)",
        "Loca_nombre": "Kenora",
        "Pais_nombre": "Canada",
        "Aero_iata": "YQK",
        "latitude": 49.788299560546875,
        "longitude": -94.36309814453125
    },
    {
        "name": "Lethbridge County Airport (YQL)",
        "Loca_nombre": "Lethbridge",
        "Pais_nombre": "Canada",
        "Aero_iata": "YQL",
        "latitude": 49.6302986145,
        "longitude": -112.800003052
    },
    {
        "name": "Greater Moncton International Airport (YQM)",
        "Loca_nombre": "Moncton",
        "Pais_nombre": "Canada",
        "Aero_iata": "YQM",
        "latitude": 46.11220169067383,
        "longitude": -64.67859649658203
    },
    {
        "name": "Comox Airport (YQQ)",
        "Loca_nombre": "Comox",
        "Pais_nombre": "Canada",
        "Aero_iata": "YQQ",
        "latitude": 49.71080017089844,
        "longitude": -124.88700103759766
    },
    {
        "name": "Regina International Airport (YQR)",
        "Loca_nombre": "Regina",
        "Pais_nombre": "Canada",
        "Aero_iata": "YQR",
        "latitude": 50.43190002441406,
        "longitude": -104.66600036621094
    },
    {
        "name": "Thunder Bay Airport (YQT)",
        "Loca_nombre": "Thunder Bay",
        "Pais_nombre": "Canada",
        "Aero_iata": "YQT",
        "latitude": 48.37189865112305,
        "longitude": -89.32389831542969
    },
    {
        "name": "Grande Prairie Airport (YQU)",
        "Loca_nombre": "Grande Prairie",
        "Pais_nombre": "Canada",
        "Aero_iata": "YQU",
        "latitude": 55.1796989441,
        "longitude": -118.885002136
    },
    {
        "name": "Yorkton Municipal Airport (YQV)",
        "Loca_nombre": "Yorkton",
        "Pais_nombre": "Canada",
        "Aero_iata": "YQV",
        "latitude": 51.26470184326172,
        "longitude": -102.46199798583984
    },
    {
        "name": "North Battleford Airport (YQW)",
        "Loca_nombre": "North Battleford",
        "Pais_nombre": "Canada",
        "Aero_iata": "YQW",
        "latitude": 52.76919937133789,
        "longitude": -108.24400329589844
    },
    {
        "name": "Gander International Airport (YQX)",
        "Loca_nombre": "Gander",
        "Pais_nombre": "Canada",
        "Aero_iata": "YQX",
        "latitude": 48.9369010925293,
        "longitude": -54.56809997558594
    },
    {
        "name": "Sydney / J.A. Douglas McCurdy Airport (YQY)",
        "Loca_nombre": "Sydney",
        "Pais_nombre": "Canada",
        "Aero_iata": "YQY",
        "latitude": 46.1614,
        "longitude": -60.047798
    },
    {
        "name": "Quesnel Airport (YQZ)",
        "Loca_nombre": "Quesnel",
        "Pais_nombre": "Canada",
        "Aero_iata": "YQZ",
        "latitude": 53.026100158691406,
        "longitude": -122.51000213623047
    },
    {
        "name": "Resolute Bay Airport (YRB)",
        "Loca_nombre": "Resolute",
        "Pais_nombre": "Canada",
        "Aero_iata": "YRB",
        "latitude": 74.7169036865,
        "longitude": -94.9693984985
    },
    {
        "name": "Rivière-du-Loup Airport (YRI)",
        "Loca_nombre": "Riviere Du Loup",
        "Pais_nombre": "Canada",
        "Aero_iata": "YRI",
        "latitude": 47.764400482177734,
        "longitude": -69.58470153808594
    },
    {
        "name": "Roberval Airport (YRJ)",
        "Loca_nombre": "Roberval",
        "Pais_nombre": "Canada",
        "Aero_iata": "YRJ",
        "latitude": 48.52000045776367,
        "longitude": -72.2656021118164
    },
    {
        "name": "Rocky Mountain House Airport (YRM)",
        "Loca_nombre": "Rocky Mountain House",
        "Pais_nombre": "Canada",
        "Aero_iata": "YRM",
        "latitude": 52.4296989441,
        "longitude": -114.903999329
    },
    {
        "name": "Rankin Inlet Airport (YRT)",
        "Loca_nombre": "Rankin Inlet",
        "Pais_nombre": "Canada",
        "Aero_iata": "YRT",
        "latitude": 62.8114013672,
        "longitude": -92.1157989502
    },
    {
        "name": "Sudbury Airport (YSB)",
        "Loca_nombre": "Sudbury",
        "Pais_nombre": "Canada",
        "Aero_iata": "YSB",
        "latitude": 46.625,
        "longitude": -80.79889678955078
    },
    {
        "name": "Sherbrooke Airport (YSC)",
        "Loca_nombre": "Sherbrooke",
        "Pais_nombre": "Canada",
        "Aero_iata": "YSC",
        "latitude": 45.4385986328125,
        "longitude": -71.69139862060547
    },
    {
        "name": "Saint John Airport (YSJ)",
        "Loca_nombre": "St. John",
        "Pais_nombre": "Canada",
        "Aero_iata": "YSJ",
        "latitude": 45.31610107421875,
        "longitude": -65.89029693603516
    },
    {
        "name": "Fort Smith Airport (YSM)",
        "Loca_nombre": "Fort Smith",
        "Pais_nombre": "Canada",
        "Aero_iata": "YSM",
        "latitude": 60.020301818847656,
        "longitude": -111.96199798583984
    },
    {
        "name": "Nanisivik Airport (YSR)",
        "Loca_nombre": "Nanisivik",
        "Pais_nombre": "Canada",
        "Aero_iata": "YSR",
        "latitude": 72.982201,
        "longitude": -84.613602
    },
    {
        "name": "Summerside Airport (YSU)",
        "Loca_nombre": "Summerside",
        "Pais_nombre": "Canada",
        "Aero_iata": "YSU",
        "latitude": 46.44060134887695,
        "longitude": -63.83359909057617
    },
    {
        "name": "Sachs Harbour (David Nasogaluak Jr. Saaryuaq) Airport (YSY)",
        "Loca_nombre": "Sachs Harbour",
        "Pais_nombre": "Canada",
        "Aero_iata": "YSY",
        "latitude": 71.9938964844,
        "longitude": -125.242996216
    },
    {
        "name": "Cape Dorset Airport (YTE)",
        "Loca_nombre": "Cape Dorset",
        "Pais_nombre": "Canada",
        "Aero_iata": "YTE",
        "latitude": 64.2300033569,
        "longitude": -76.5267028809
    },
    {
        "name": "Thompson Airport (YTH)",
        "Loca_nombre": "Thompson",
        "Pais_nombre": "Canada",
        "Aero_iata": "YTH",
        "latitude": 55.80110168457031,
        "longitude": -97.86419677734375
    },
    {
        "name": "CFB Trenton (YTR)",
        "Loca_nombre": "Trenton",
        "Pais_nombre": "Canada",
        "Aero_iata": "YTR",
        "latitude": 44.118900299072266,
        "longitude": -77.5280990600586
    },
    {
        "name": "Timmins/Victor M. Power (YTS)",
        "Loca_nombre": "Timmins",
        "Pais_nombre": "Canada",
        "Aero_iata": "YTS",
        "latitude": 48.569698333699996,
        "longitude": -81.376701355
    },
    {
        "name": "Billy Bishop Toronto City Centre Airport (YTZ)",
        "Loca_nombre": "Toronto",
        "Pais_nombre": "Canada",
        "Aero_iata": "YTZ",
        "latitude": 43.627499,
        "longitude": -79.396202
    },
    {
        "name": "Tuktoyaktuk Airport (YUB)",
        "Loca_nombre": "Tuktoyaktuk",
        "Pais_nombre": "Canada",
        "Aero_iata": "YUB",
        "latitude": 69.43329620361328,
        "longitude": -133.0260009765625
    },
    {
        "name": "Montreal / Pierre Elliott Trudeau International Airport (YUL)",
        "Loca_nombre": "Montreal",
        "Pais_nombre": "Canada",
        "Aero_iata": "YUL",
        "latitude": 45.4706001282,
        "longitude": -73.7407989502
    },
    {
        "name": "Repulse Bay Airport (YUT)",
        "Loca_nombre": "Repulse Bay",
        "Pais_nombre": "Canada",
        "Aero_iata": "YUT",
        "latitude": 66.5214004517,
        "longitude": -86.22470092770001
    },
    {
        "name": "Hall Beach Airport (YUX)",
        "Loca_nombre": "Hall Beach",
        "Pais_nombre": "Canada",
        "Aero_iata": "YUX",
        "latitude": 68.77610015869999,
        "longitude": -81.2425
    },
    {
        "name": "Rouyn Noranda Airport (YUY)",
        "Loca_nombre": "Rouyn",
        "Pais_nombre": "Canada",
        "Aero_iata": "YUY",
        "latitude": 48.20610046386719,
        "longitude": -78.83560180664062
    },
    {
        "name": "La Ronge Airport (YVC)",
        "Loca_nombre": "La Ronge",
        "Pais_nombre": "Canada",
        "Aero_iata": "YVC",
        "latitude": 55.151401519800004,
        "longitude": -105.262001038
    },
    {
        "name": "Vermilion Airport (YVG)",
        "Loca_nombre": "Vermillion",
        "Pais_nombre": "Canada",
        "Aero_iata": "YVG",
        "latitude": 53.355800628699996,
        "longitude": -110.823997498
    },
    {
        "name": "Qikiqtarjuaq Airport (YVM)",
        "Loca_nombre": "Broughton Island",
        "Pais_nombre": "Canada",
        "Aero_iata": "YVM",
        "latitude": 67.5457992554,
        "longitude": -64.03140258789999
    },
    {
        "name": "Val-d'Or Airport (YVO)",
        "Loca_nombre": "Val D'or",
        "Pais_nombre": "Canada",
        "Aero_iata": "YVO",
        "latitude": 48.0532989502,
        "longitude": -77.7827987671
    },
    {
        "name": "Kuujjuaq Airport (YVP)",
        "Loca_nombre": "Quujjuaq",
        "Pais_nombre": "Canada",
        "Aero_iata": "YVP",
        "latitude": 58.096099853515625,
        "longitude": -68.4269027709961
    },
    {
        "name": "Norman Wells Airport (YVQ)",
        "Loca_nombre": "Norman Wells",
        "Pais_nombre": "Canada",
        "Aero_iata": "YVQ",
        "latitude": 65.28160095214844,
        "longitude": -126.7979965209961
    },
    {
        "name": "Vancouver International Airport (YVR)",
        "Loca_nombre": "Vancouver",
        "Pais_nombre": "Canada",
        "Aero_iata": "YVR",
        "latitude": 49.193901062,
        "longitude": -123.183998108
    },
    {
        "name": "Buffalo Narrows Airport (YVT)",
        "Loca_nombre": "Buffalo Narrows",
        "Pais_nombre": "Canada",
        "Aero_iata": "YVT",
        "latitude": 55.8418998718,
        "longitude": -108.417999268
    },
    {
        "name": "Wiarton Airport (YVV)",
        "Loca_nombre": "Wiarton",
        "Pais_nombre": "Canada",
        "Aero_iata": "YVV",
        "latitude": 44.7458,
        "longitude": -81.107201
    },
    {
        "name": "Petawawa Airport (YWA)",
        "Loca_nombre": "Petawawa",
        "Pais_nombre": "Canada",
        "Aero_iata": "YWA",
        "latitude": 45.95220184326172,
        "longitude": -77.31919860839844
    },
    {
        "name": "Winnipeg / James Armstrong Richardson International Airport (YWG)",
        "Loca_nombre": "Winnipeg",
        "Pais_nombre": "Canada",
        "Aero_iata": "YWG",
        "latitude": 49.909999847399995,
        "longitude": -97.2398986816
    },
    {
        "name": "Wabush Airport (YWK)",
        "Loca_nombre": "Wabush",
        "Pais_nombre": "Canada",
        "Aero_iata": "YWK",
        "latitude": 52.92190170288086,
        "longitude": -66.8644027709961
    },
    {
        "name": "Williams Lake Airport (YWL)",
        "Loca_nombre": "Williams Lake",
        "Pais_nombre": "Canada",
        "Aero_iata": "YWL",
        "latitude": 52.1831016541,
        "longitude": -122.054000854
    },
    {
        "name": "Wrigley Airport (YWY)",
        "Loca_nombre": "Wrigley",
        "Pais_nombre": "Canada",
        "Aero_iata": "YWY",
        "latitude": 63.20940017700195,
        "longitude": -123.43699645996094
    },
    {
        "name": "Cranbrook/Canadian Rockies International Airport (YXC)",
        "Loca_nombre": "Cranbrook",
        "Pais_nombre": "Canada",
        "Aero_iata": "YXC",
        "latitude": 49.610801696777,
        "longitude": -115.78199768066
    },
    {
        "name": "Edmonton City Centre (Blatchford Field) Airport (YXD)",
        "Loca_nombre": "Edmonton",
        "Pais_nombre": "Canada",
        "Aero_iata": "YXD",
        "latitude": 53.5724983215,
        "longitude": -113.521003723
    },
    {
        "name": "Saskatoon John G. Diefenbaker International Airport (YXE)",
        "Loca_nombre": "Saskatoon",
        "Pais_nombre": "Canada",
        "Aero_iata": "YXE",
        "latitude": 52.170799255371094,
        "longitude": -106.69999694824219
    },
    {
        "name": "Medicine Hat Airport (YXH)",
        "Loca_nombre": "Medicine Hat",
        "Pais_nombre": "Canada",
        "Aero_iata": "YXH",
        "latitude": 50.01890182495117,
        "longitude": -110.72100067138672
    },
    {
        "name": "Fort St John Airport (YXJ)",
        "Loca_nombre": "Fort Saint John",
        "Pais_nombre": "Canada",
        "Aero_iata": "YXJ",
        "latitude": 56.23809814453125,
        "longitude": -120.73999786376953
    },
    {
        "name": "Sioux Lookout Airport (YXL)",
        "Loca_nombre": "Sioux Lookout",
        "Pais_nombre": "Canada",
        "Aero_iata": "YXL",
        "latitude": 50.11389923095703,
        "longitude": -91.9052963256836
    },
    {
        "name": "Pangnirtung Airport (YXP)",
        "Loca_nombre": "Pangnirtung",
        "Pais_nombre": "Canada",
        "Aero_iata": "YXP",
        "latitude": 66.1449966431,
        "longitude": -65.71360015869999
    },
    {
        "name": "Earlton (Timiskaming Regional) Airport (YXR)",
        "Loca_nombre": "Earlton",
        "Pais_nombre": "Canada",
        "Aero_iata": "YXR",
        "latitude": 47.697400654599996,
        "longitude": -79.8473453522
    },
    {
        "name": "Prince George Airport (YXS)",
        "Loca_nombre": "Prince George",
        "Pais_nombre": "Canada",
        "Aero_iata": "YXS",
        "latitude": 53.8894004822,
        "longitude": -122.679000854
    },
    {
        "name": "Northwest Regional Airport Terrace-Kitimat (YXT)",
        "Loca_nombre": "Terrace",
        "Pais_nombre": "Canada",
        "Aero_iata": "YXT",
        "latitude": 54.468498,
        "longitude": -128.576009
    },
    {
        "name": "London Airport (YXU)",
        "Loca_nombre": "London",
        "Pais_nombre": "Canada",
        "Aero_iata": "YXU",
        "latitude": 43.035599,
        "longitude": -81.1539
    },
    {
        "name": "Abbotsford Airport (YXX)",
        "Loca_nombre": "Abbotsford",
        "Pais_nombre": "Canada",
        "Aero_iata": "YXX",
        "latitude": 49.025299072265625,
        "longitude": -122.36100006103516
    },
    {
        "name": "Whitehorse / Erik Nielsen International Airport (YXY)",
        "Loca_nombre": "Whitehorse",
        "Pais_nombre": "Canada",
        "Aero_iata": "YXY",
        "latitude": 60.7095985413,
        "longitude": -135.067001343
    },
    {
        "name": "North Bay Jack Garland Airport (YYB)",
        "Loca_nombre": "North Bay",
        "Pais_nombre": "Canada",
        "Aero_iata": "YYB",
        "latitude": 46.363602,
        "longitude": -79.422798
    },
    {
        "name": "Calgary International Airport (YYC)",
        "Loca_nombre": "Calgary",
        "Pais_nombre": "Canada",
        "Aero_iata": "YYC",
        "latitude": 51.113899231,
        "longitude": -114.019996643
    },
    {
        "name": "Smithers Airport (YYD)",
        "Loca_nombre": "Smithers",
        "Pais_nombre": "Canada",
        "Aero_iata": "YYD",
        "latitude": 54.82469940185547,
        "longitude": -127.18299865722656
    },
    {
        "name": "Fort Nelson Airport (YYE)",
        "Loca_nombre": "Fort Nelson",
        "Pais_nombre": "Canada",
        "Aero_iata": "YYE",
        "latitude": 58.8363990784,
        "longitude": -122.597000122
    },
    {
        "name": "Penticton Airport (YYF)",
        "Loca_nombre": "Penticton",
        "Pais_nombre": "Canada",
        "Aero_iata": "YYF",
        "latitude": 49.46310043334961,
        "longitude": -119.60199737548828
    },
    {
        "name": "Charlottetown Airport (YYG)",
        "Loca_nombre": "Charlottetown",
        "Pais_nombre": "Canada",
        "Aero_iata": "YYG",
        "latitude": 46.290000915527344,
        "longitude": -63.12110137939453
    },
    {
        "name": "Taloyoak Airport (YYH)",
        "Loca_nombre": "Spence Bay",
        "Pais_nombre": "Canada",
        "Aero_iata": "YYH",
        "latitude": 69.5466995239,
        "longitude": -93.5766983032
    },
    {
        "name": "Victoria International Airport (YYJ)",
        "Loca_nombre": "Victoria",
        "Pais_nombre": "Canada",
        "Aero_iata": "YYJ",
        "latitude": 48.646900177,
        "longitude": -123.426002502
    },
    {
        "name": "Lynn Lake Airport (YYL)",
        "Loca_nombre": "Lynn Lake",
        "Pais_nombre": "Canada",
        "Aero_iata": "YYL",
        "latitude": 56.86389923095703,
        "longitude": -101.07599639892578
    },
    {
        "name": "Swift Current Airport (YYN)",
        "Loca_nombre": "Swift Current",
        "Pais_nombre": "Canada",
        "Aero_iata": "YYN",
        "latitude": 50.291900634799994,
        "longitude": -107.691001892
    },
    {
        "name": "Churchill Airport (YYQ)",
        "Loca_nombre": "Churchill",
        "Pais_nombre": "Canada",
        "Aero_iata": "YYQ",
        "latitude": 58.739200592041016,
        "longitude": -94.06500244140625
    },
    {
        "name": "Goose Bay Airport (YYR)",
        "Loca_nombre": "Goose Bay",
        "Pais_nombre": "Canada",
        "Aero_iata": "YYR",
        "latitude": 53.3191986084,
        "longitude": -60.4258003235
    },
    {
        "name": "St. John's International Airport (YYT)",
        "Loca_nombre": "St. John's",
        "Pais_nombre": "Canada",
        "Aero_iata": "YYT",
        "latitude": 47.618598938,
        "longitude": -52.7518997192
    },
    {
        "name": "Kapuskasing Airport (YYU)",
        "Loca_nombre": "Kapuskasing",
        "Pais_nombre": "Canada",
        "Aero_iata": "YYU",
        "latitude": 49.41389846801758,
        "longitude": -82.46749877929688
    },
    {
        "name": "Armstrong Airport (YYW)",
        "Loca_nombre": "Armstrong",
        "Pais_nombre": "Canada",
        "Aero_iata": "YYW",
        "latitude": 50.29029846191406,
        "longitude": -88.90969848632812
    },
    {
        "name": "Mont Joli Airport (YYY)",
        "Loca_nombre": "Mont Joli",
        "Pais_nombre": "Canada",
        "Aero_iata": "YYY",
        "latitude": 48.60860061645508,
        "longitude": -68.20809936523438
    },
    {
        "name": "Lester B. Pearson International Airport (YYZ)",
        "Loca_nombre": "Toronto",
        "Pais_nombre": "Canada",
        "Aero_iata": "YYZ",
        "latitude": 43.6772003174,
        "longitude": -79.63059997559999
    },
    {
        "name": "Downsview Airport (YZD)",
        "Loca_nombre": "Toronto",
        "Pais_nombre": "Canada",
        "Aero_iata": "YZD",
        "latitude": 43.74250030517578,
        "longitude": -79.4655990600586
    },
    {
        "name": "Gore Bay Manitoulin Airport (YZE)",
        "Loca_nombre": "Gore Bay",
        "Pais_nombre": "Canada",
        "Aero_iata": "YZE",
        "latitude": 45.88529968261719,
        "longitude": -82.56780242919922
    },
    {
        "name": "Yellowknife Airport (YZF)",
        "Loca_nombre": "Yellowknife",
        "Pais_nombre": "Canada",
        "Aero_iata": "YZF",
        "latitude": 62.462799072265625,
        "longitude": -114.44000244140625
    },
    {
        "name": "Slave Lake Airport (YZH)",
        "Loca_nombre": "Slave Lake",
        "Pais_nombre": "Canada",
        "Aero_iata": "YZH",
        "latitude": 55.2930984497,
        "longitude": -114.777000427
    },
    {
        "name": "Sandspit Airport (YZP)",
        "Loca_nombre": "Sandspit",
        "Pais_nombre": "Canada",
        "Aero_iata": "YZP",
        "latitude": 53.25429916379999,
        "longitude": -131.813995361
    },
    {
        "name": "Chris Hadfield Airport (YZR)",
        "Loca_nombre": "Sarnia",
        "Pais_nombre": "Canada",
        "Aero_iata": "YZR",
        "latitude": 42.9994010925293,
        "longitude": -82.30889892578125
    },
    {
        "name": "Port Hardy Airport (YZT)",
        "Loca_nombre": "Port Hardy",
        "Pais_nombre": "Canada",
        "Aero_iata": "YZT",
        "latitude": 50.680599212646484,
        "longitude": -127.36699676513672
    },
    {
        "name": "Whitecourt Airport (YZU)",
        "Loca_nombre": "Whitecourt",
        "Pais_nombre": "Canada",
        "Aero_iata": "YZU",
        "latitude": 54.14390182495117,
        "longitude": -115.78700256347656
    },
    {
        "name": "Sept-Îles Airport (YZV)",
        "Loca_nombre": "Sept-iles",
        "Pais_nombre": "Canada",
        "Aero_iata": "YZV",
        "latitude": 50.22330093383789,
        "longitude": -66.2656021118164
    },
    {
        "name": "Teslin Airport (YZW)",
        "Loca_nombre": "Teslin",
        "Pais_nombre": "Canada",
        "Aero_iata": "YZW",
        "latitude": 60.17279815673828,
        "longitude": -132.7429962158203
    },
    {
        "name": "CFB Greenwood (YZX)",
        "Loca_nombre": "Greenwood",
        "Pais_nombre": "Canada",
        "Aero_iata": "YZX",
        "latitude": 44.98440170288086,
        "longitude": -64.91690063476562
    },
    {
        "name": "Faro Airport (ZFA)",
        "Loca_nombre": "Faro",
        "Pais_nombre": "Canada",
        "Aero_iata": "ZFA",
        "latitude": 62.20750045776367,
        "longitude": -133.37600708007812
    },
    {
        "name": "Fort Mcpherson Airport (ZFM)",
        "Loca_nombre": "Fort Mcpherson",
        "Pais_nombre": "Canada",
        "Aero_iata": "ZFM",
        "latitude": 67.40750122070312,
        "longitude": -134.86099243164062
    },
    {
        "name": "Blida Airport (QLD)",
        "Loca_nombre": "Blida",
        "Pais_nombre": "Algeria",
        "Aero_iata": "QLD",
        "latitude": 36.50360107421875,
        "longitude": 2.8141698837280273
    },
    {
        "name": "Bou Saada Airport (BUJ)",
        "Loca_nombre": "Bou Saada",
        "Pais_nombre": "Algeria",
        "Aero_iata": "BUJ",
        "latitude": 35.33250045776367,
        "longitude": 4.206389904022217
    },
    {
        "name": "Soummam Airport (BJA)",
        "Loca_nombre": "Bejaja",
        "Pais_nombre": "Algeria",
        "Aero_iata": "BJA",
        "latitude": 36.7120018005,
        "longitude": 5.0699200630200005
    },
    {
        "name": "Houari Boumediene Airport (ALG)",
        "Loca_nombre": "Algier",
        "Pais_nombre": "Algeria",
        "Aero_iata": "ALG",
        "latitude": 36.691001892089844,
        "longitude": 3.215409994125366
    },
    {
        "name": "Djanet Inedbirene Airport (DJG)",
        "Loca_nombre": "Djanet",
        "Pais_nombre": "Algeria",
        "Aero_iata": "DJG",
        "latitude": 24.292801,
        "longitude": 9.45244
    },
    {
        "name": "Boufarik Airport (\\N)",
        "Loca_nombre": "Boufarik",
        "Pais_nombre": "Algeria",
        "Aero_iata": "\\N",
        "latitude": 36.545799,
        "longitude": 2.87611
    },
    {
        "name": "Reggane Airport (\\N)",
        "Loca_nombre": "Reggan",
        "Pais_nombre": "Algeria",
        "Aero_iata": "\\N",
        "latitude": 26.7101,
        "longitude": 0.285647
    },
    {
        "name": "Illizi Takhamalt Airport (VVZ)",
        "Loca_nombre": "Illizi",
        "Pais_nombre": "Algeria",
        "Aero_iata": "VVZ",
        "latitude": 26.7234992981,
        "longitude": 8.62265014648
    },
    {
        "name": "Ain Oussera Airport (\\N)",
        "Loca_nombre": "Ain Oussera",
        "Pais_nombre": "Algeria",
        "Aero_iata": "\\N",
        "latitude": 35.52539825439453,
        "longitude": 2.8787100315093994
    },
    {
        "name": "Aguenar – Hadj Bey Akhamok Airport (TMR)",
        "Loca_nombre": "Tamanrasset",
        "Pais_nombre": "Algeria",
        "Aero_iata": "TMR",
        "latitude": 22.8115005493,
        "longitude": 5.45107984543
    },
    {
        "name": "Jijel Ferhat Abbas Airport (GJL)",
        "Loca_nombre": "Jijel",
        "Pais_nombre": "Algeria",
        "Aero_iata": "GJL",
        "latitude": 36.7951011658,
        "longitude": 5.87361001968
    },
    {
        "name": "Mecheria Airport (MZW)",
        "Loca_nombre": "Mecheria",
        "Pais_nombre": "Algeria",
        "Aero_iata": "MZW",
        "latitude": 33.535900116,
        "longitude": -0.242353007197
    },
    {
        "name": "Relizane Airport (\\N)",
        "Loca_nombre": "Relizane",
        "Pais_nombre": "Algeria",
        "Aero_iata": "\\N",
        "latitude": 35.752201,
        "longitude": 0.626272
    },
    {
        "name": "Rabah Bitat Airport (AAE)",
        "Loca_nombre": "Annaba",
        "Pais_nombre": "Algeria",
        "Aero_iata": "AAE",
        "latitude": 36.822201,
        "longitude": 7.809174
    },
    {
        "name": "Mohamed Boudiaf International Airport (CZL)",
        "Loca_nombre": "Constantine",
        "Pais_nombre": "Algeria",
        "Aero_iata": "CZL",
        "latitude": 36.2760009765625,
        "longitude": 6.620389938354492
    },
    {
        "name": "Cheikh Larbi Tébessi Airport (TEE)",
        "Loca_nombre": "Tebessa",
        "Pais_nombre": "Algeria",
        "Aero_iata": "TEE",
        "latitude": 35.4315986633,
        "longitude": 8.12071990967
    },
    {
        "name": "Hassi R'Mel Airport (HRM)",
        "Loca_nombre": "Tilrempt",
        "Pais_nombre": "Algeria",
        "Aero_iata": "HRM",
        "latitude": 32.93040084838867,
        "longitude": 3.311539888381958
    },
    {
        "name": "Bou Chekif Airport (TID)",
        "Loca_nombre": "Tiaret",
        "Pais_nombre": "Algeria",
        "Aero_iata": "TID",
        "latitude": 35.3410987854,
        "longitude": 1.46315002441
    },
    {
        "name": "Bou Sfer Airport (\\N)",
        "Loca_nombre": "Bou Sfer",
        "Pais_nombre": "Algeria",
        "Aero_iata": "\\N",
        "latitude": 35.73540115356445,
        "longitude": -0.8053889870643616
    },
    {
        "name": "Tindouf Airport (TIN)",
        "Loca_nombre": "Tindouf",
        "Pais_nombre": "Algeria",
        "Aero_iata": "TIN",
        "latitude": 27.7003993988,
        "longitude": -8.167099952700001
    },
    {
        "name": "Ech Cheliff Airport (CFK)",
        "Loca_nombre": "Ech-cheliff",
        "Pais_nombre": "Algeria",
        "Aero_iata": "CFK",
        "latitude": 36.2126998901,
        "longitude": 1.33176994324
    },
    {
        "name": "Tafaraoui Airport (TAF)",
        "Loca_nombre": "Oran",
        "Pais_nombre": "Algeria",
        "Aero_iata": "TAF",
        "latitude": 35.54240036010742,
        "longitude": -0.5322780013084412
    },
    {
        "name": "Zenata – Messali El Hadj Airport (TLM)",
        "Loca_nombre": "Tlemcen",
        "Pais_nombre": "Algeria",
        "Aero_iata": "TLM",
        "latitude": 35.0167007446,
        "longitude": -1.45000004768
    },
    {
        "name": "Es Senia Airport (ORN)",
        "Loca_nombre": "Oran",
        "Pais_nombre": "Algeria",
        "Aero_iata": "ORN",
        "latitude": 35.6239013672,
        "longitude": -0.6211829781529999
    },
    {
        "name": "Sidi Bel Abbes Airport (BFW)",
        "Loca_nombre": "Sidi Bel Abbes",
        "Pais_nombre": "Algeria",
        "Aero_iata": "BFW",
        "latitude": 35.1717987061,
        "longitude": -0.593275010586
    },
    {
        "name": "Ghriss Airport (MUW)",
        "Loca_nombre": "Ghriss",
        "Pais_nombre": "Algeria",
        "Aero_iata": "MUW",
        "latitude": 35.207698822021484,
        "longitude": 0.14714199304580688
    },
    {
        "name": "Touat Cheikh Sidi Mohamed Belkebir Airport (AZR)",
        "Loca_nombre": "Adrar",
        "Pais_nombre": "Algeria",
        "Aero_iata": "AZR",
        "latitude": 27.837600708007812,
        "longitude": -0.18641400337219238
    },
    {
        "name": "Biskra Airport (BSK)",
        "Loca_nombre": "Biskra",
        "Pais_nombre": "Algeria",
        "Aero_iata": "BSK",
        "latitude": 34.793300628699996,
        "longitude": 5.73823022842
    },
    {
        "name": "El Golea Airport (ELG)",
        "Loca_nombre": "El Golea",
        "Pais_nombre": "Algeria",
        "Aero_iata": "ELG",
        "latitude": 30.571300506591797,
        "longitude": 2.8595900535583496
    },
    {
        "name": "Noumérat - Moufdi Zakaria Airport (GHA)",
        "Loca_nombre": "Ghardaia",
        "Pais_nombre": "Algeria",
        "Aero_iata": "GHA",
        "latitude": 32.38410186767578,
        "longitude": 3.794110059738159
    },
    {
        "name": "Oued Irara Airport (HME)",
        "Loca_nombre": "Hassi Messaoud",
        "Pais_nombre": "Algeria",
        "Aero_iata": "HME",
        "latitude": 31.673000335699996,
        "longitude": 6.140439987180001
    },
    {
        "name": "In Salah Airport (INZ)",
        "Loca_nombre": "In Salah",
        "Pais_nombre": "Algeria",
        "Aero_iata": "INZ",
        "latitude": 27.250999450699997,
        "longitude": 2.51202011108
    },
    {
        "name": "Touggourt Sidi Madhi Airport (TGR)",
        "Loca_nombre": "Touggourt",
        "Pais_nombre": "Algeria",
        "Aero_iata": "TGR",
        "latitude": 33.06779861450195,
        "longitude": 6.088669776916504
    },
    {
        "name": "Laghouat Airport (LOO)",
        "Loca_nombre": "Laghouat",
        "Pais_nombre": "Algeria",
        "Aero_iata": "LOO",
        "latitude": 33.764400482199996,
        "longitude": 2.92833995819
    },
    {
        "name": "Timimoun Airport (TMX)",
        "Loca_nombre": "Timimoun",
        "Pais_nombre": "Algeria",
        "Aero_iata": "TMX",
        "latitude": 29.2371006012,
        "longitude": 0.276033014059
    },
    {
        "name": "Ain el Beida Airport (OGX)",
        "Loca_nombre": "Ouargla",
        "Pais_nombre": "Algeria",
        "Aero_iata": "OGX",
        "latitude": 31.917200088500977,
        "longitude": 5.412779808044434
    },
    {
        "name": "In Aménas Airport (IAM)",
        "Loca_nombre": "Zarzaitine",
        "Pais_nombre": "Algeria",
        "Aero_iata": "IAM",
        "latitude": 28.0515,
        "longitude": 9.64291
    },
    {
        "name": "Cadjehoun Airport (COO)",
        "Loca_nombre": "Cotonou",
        "Pais_nombre": "Benin",
        "Aero_iata": "COO",
        "latitude": 6.357230186462402,
        "longitude": 2.384350061416626
    },
    {
        "name": "Ouagadougou Airport (OUA)",
        "Loca_nombre": "Ouagadougou",
        "Pais_nombre": "Burkina Faso",
        "Aero_iata": "OUA",
        "latitude": 12.3532,
        "longitude": -1.51242
    },
    {
        "name": "Bobo Dioulasso Airport (BOY)",
        "Loca_nombre": "Bobo-dioulasso",
        "Pais_nombre": "Burkina Faso",
        "Aero_iata": "BOY",
        "latitude": 11.160099983215332,
        "longitude": -4.33096981048584
    },
    {
        "name": "Kotoka International Airport (ACC)",
        "Loca_nombre": "Accra",
        "Pais_nombre": "Ghana",
        "Aero_iata": "ACC",
        "latitude": 5.605189800262451,
        "longitude": -0.16678600013256073
    },
    {
        "name": "Tamale Airport (TML)",
        "Loca_nombre": "Tamale",
        "Pais_nombre": "Ghana",
        "Aero_iata": "TML",
        "latitude": 9.55718994140625,
        "longitude": -0.8632140159606934
    },
    {
        "name": "Wa Airport (\\N)",
        "Loca_nombre": "Wa",
        "Pais_nombre": "Ghana",
        "Aero_iata": "\\N",
        "latitude": 10.0826997756958,
        "longitude": -2.507689952850342
    },
    {
        "name": "Sunyani Airport (NYI)",
        "Loca_nombre": "Sunyani",
        "Pais_nombre": "Ghana",
        "Aero_iata": "NYI",
        "latitude": 7.361830234527588,
        "longitude": -2.3287599086761475
    },
    {
        "name": "Takoradi Airport (TKD)",
        "Loca_nombre": "Takoradi",
        "Pais_nombre": "Ghana",
        "Aero_iata": "TKD",
        "latitude": 4.896059989929199,
        "longitude": -1.7747600078582764
    },
    {
        "name": "Port Bouet Airport (ABJ)",
        "Loca_nombre": "Abidjan",
        "Pais_nombre": "Cote d'Ivoire",
        "Aero_iata": "ABJ",
        "latitude": 5.261390209197998,
        "longitude": -3.9262900352478027
    },
    {
        "name": "Bouaké Airport (BYK)",
        "Loca_nombre": "Bouake",
        "Pais_nombre": "Cote d'Ivoire",
        "Aero_iata": "BYK",
        "latitude": 7.738800048828125,
        "longitude": -5.073669910430908
    },
    {
        "name": "Daloa Airport (DJO)",
        "Loca_nombre": "Daloa",
        "Pais_nombre": "Cote d'Ivoire",
        "Aero_iata": "DJO",
        "latitude": 6.792809963226318,
        "longitude": -6.473189830780029
    },
    {
        "name": "Korhogo Airport (HGO)",
        "Loca_nombre": "Korhogo",
        "Pais_nombre": "Cote d'Ivoire",
        "Aero_iata": "HGO",
        "latitude": 9.38718032837,
        "longitude": -5.55666017532
    },
    {
        "name": "Man Airport (MJC)",
        "Loca_nombre": "Man",
        "Pais_nombre": "Cote d'Ivoire",
        "Aero_iata": "MJC",
        "latitude": 7.272069931030273,
        "longitude": -7.58735990524292
    },
    {
        "name": "San Pedro Airport (SPY)",
        "Loca_nombre": "San Pedro",
        "Pais_nombre": "Cote d'Ivoire",
        "Aero_iata": "SPY",
        "latitude": 4.746719837188721,
        "longitude": -6.660820007324219
    },
    {
        "name": "Yamoussoukro Airport (ASK)",
        "Loca_nombre": "Yamoussoukro",
        "Pais_nombre": "Cote d'Ivoire",
        "Aero_iata": "ASK",
        "latitude": 6.9031701088,
        "longitude": -5.36558008194
    },
    {
        "name": "Nnamdi Azikiwe International Airport (ABV)",
        "Loca_nombre": "Abuja",
        "Pais_nombre": "Nigeria",
        "Aero_iata": "ABV",
        "latitude": 9.006790161132812,
        "longitude": 7.263169765472412
    },
    {
        "name": "Akure Airport (AKR)",
        "Loca_nombre": "Akure",
        "Pais_nombre": "Nigeria",
        "Aero_iata": "AKR",
        "latitude": 7.246739864349365,
        "longitude": 5.3010101318359375
    },
    {
        "name": "Benin Airport (BNI)",
        "Loca_nombre": "Benin",
        "Pais_nombre": "Nigeria",
        "Aero_iata": "BNI",
        "latitude": 6.316979885101318,
        "longitude": 5.5995001792907715
    },
    {
        "name": "Margaret Ekpo International Airport (CBQ)",
        "Loca_nombre": "Calabar",
        "Pais_nombre": "Nigeria",
        "Aero_iata": "CBQ",
        "latitude": 4.976019859313965,
        "longitude": 8.347200393676758
    },
    {
        "name": "Akanu Ibiam International Airport (ENU)",
        "Loca_nombre": "Enugu",
        "Pais_nombre": "Nigeria",
        "Aero_iata": "ENU",
        "latitude": 6.474269866943359,
        "longitude": 7.561960220336914
    },
    {
        "name": "Gusau Airport (\\N)",
        "Loca_nombre": "Gusau",
        "Pais_nombre": "Nigeria",
        "Aero_iata": "\\N",
        "latitude": 12.1717,
        "longitude": 6.69611
    },
    {
        "name": "Ibadan Airport (IBA)",
        "Loca_nombre": "Ibadan",
        "Pais_nombre": "Nigeria",
        "Aero_iata": "IBA",
        "latitude": 7.362460136413574,
        "longitude": 3.97832989692688
    },
    {
        "name": "Ilorin International Airport (ILR)",
        "Loca_nombre": "Ilorin",
        "Pais_nombre": "Nigeria",
        "Aero_iata": "ILR",
        "latitude": 8.440210342407227,
        "longitude": 4.493919849395752
    },
    {
        "name": "Yakubu Gowon Airport (JOS)",
        "Loca_nombre": "Jos",
        "Pais_nombre": "Nigeria",
        "Aero_iata": "JOS",
        "latitude": 9.639829635620117,
        "longitude": 8.869050025939941
    },
    {
        "name": "Kaduna Airport (KAD)",
        "Loca_nombre": "Kaduna",
        "Pais_nombre": "Nigeria",
        "Aero_iata": "KAD",
        "latitude": 10.696000099182129,
        "longitude": 7.320109844207764
    },
    {
        "name": "Mallam Aminu International Airport (KAN)",
        "Loca_nombre": "Kano",
        "Pais_nombre": "Nigeria",
        "Aero_iata": "KAN",
        "latitude": 12.0476,
        "longitude": 8.52462
    },
    {
        "name": "Maiduguri International Airport (MIU)",
        "Loca_nombre": "Maiduguri",
        "Pais_nombre": "Nigeria",
        "Aero_iata": "MIU",
        "latitude": 11.855299949645996,
        "longitude": 13.080900192260742
    },
    {
        "name": "Makurdi Airport (MDI)",
        "Loca_nombre": "Makurdi",
        "Pais_nombre": "Nigeria",
        "Aero_iata": "MDI",
        "latitude": 7.70388,
        "longitude": 8.61394
    },
    {
        "name": "Murtala Muhammed International Airport (LOS)",
        "Loca_nombre": "Lagos",
        "Pais_nombre": "Nigeria",
        "Aero_iata": "LOS",
        "latitude": 6.5773701667785645,
        "longitude": 3.321160078048706
    },
    {
        "name": "Minna Airport (MXJ)",
        "Loca_nombre": "Minna",
        "Pais_nombre": "Nigeria",
        "Aero_iata": "MXJ",
        "latitude": 9.652170181274414,
        "longitude": 6.462259769439697
    },
    {
        "name": "Port Harcourt International Airport (PHC)",
        "Loca_nombre": "Port Hartcourt",
        "Pais_nombre": "Nigeria",
        "Aero_iata": "PHC",
        "latitude": 5.0154900550842285,
        "longitude": 6.94959020614624
    },
    {
        "name": "Sadiq Abubakar III International Airport (SKO)",
        "Loca_nombre": "Sokoto",
        "Pais_nombre": "Nigeria",
        "Aero_iata": "SKO",
        "latitude": 12.916299819946289,
        "longitude": 5.207190036773682
    },
    {
        "name": "Yola Airport (YOL)",
        "Loca_nombre": "Yola",
        "Pais_nombre": "Nigeria",
        "Aero_iata": "YOL",
        "latitude": 9.257550239562988,
        "longitude": 12.430399894714355
    },
    {
        "name": "Zaria Airport (ZAR)",
        "Loca_nombre": "Zaria",
        "Pais_nombre": "Nigeria",
        "Aero_iata": "ZAR",
        "latitude": 11.1302,
        "longitude": 7.68581
    },
    {
        "name": "Maradi Airport (MFQ)",
        "Loca_nombre": "Maradi",
        "Pais_nombre": "Niger",
        "Aero_iata": "MFQ",
        "latitude": 13.5024995803833,
        "longitude": 7.1267499923706055
    },
    {
        "name": "Diori Hamani International Airport (NIM)",
        "Loca_nombre": "Niamey",
        "Pais_nombre": "Niger",
        "Aero_iata": "NIM",
        "latitude": 13.4815,
        "longitude": 2.18361
    },
    {
        "name": "Tahoua Airport (THZ)",
        "Loca_nombre": "Tahoua",
        "Pais_nombre": "Niger",
        "Aero_iata": "THZ",
        "latitude": 14.875699996948242,
        "longitude": 5.265359878540039
    },
    {
        "name": "Mano Dayak International Airport (AJY)",
        "Loca_nombre": "Agadez",
        "Pais_nombre": "Niger",
        "Aero_iata": "AJY",
        "latitude": 16.965999603271484,
        "longitude": 8.000109672546387
    },
    {
        "name": "Dirkou Airport (\\N)",
        "Loca_nombre": "Dirkou",
        "Pais_nombre": "Niger",
        "Aero_iata": "\\N",
        "latitude": 18.968700408935547,
        "longitude": 12.86870002746582
    },
    {
        "name": "Diffa Airport (\\N)",
        "Loca_nombre": "Diffa",
        "Pais_nombre": "Niger",
        "Aero_iata": "\\N",
        "latitude": 13.372900009155273,
        "longitude": 12.626700401306152
    },
    {
        "name": "Zinder Airport (ZND)",
        "Loca_nombre": "Zinder",
        "Pais_nombre": "Niger",
        "Aero_iata": "ZND",
        "latitude": 13.779000282287598,
        "longitude": 8.983759880065918
    },
    {
        "name": "Monastir Habib Bourguiba International Airport (MIR)",
        "Loca_nombre": "Monastir",
        "Pais_nombre": "Tunisia",
        "Aero_iata": "MIR",
        "latitude": 35.75809860229492,
        "longitude": 10.75469970703125
    },
    {
        "name": "Tunis Carthage International Airport (TUN)",
        "Loca_nombre": "Tunis",
        "Pais_nombre": "Tunisia",
        "Aero_iata": "TUN",
        "latitude": 36.85100173950195,
        "longitude": 10.22719955444336
    },
    {
        "name": "Sidi Ahmed Air Base (\\N)",
        "Loca_nombre": "Bizerte",
        "Pais_nombre": "Tunisia",
        "Aero_iata": "\\N",
        "latitude": 37.245398,
        "longitude": 9.79145
    },
    {
        "name": "Remada Air Base (\\N)",
        "Loca_nombre": "Remada",
        "Pais_nombre": "Tunisia",
        "Aero_iata": "\\N",
        "latitude": 32.30619812011719,
        "longitude": 10.382100105285645
    },
    {
        "name": "Gafsa Ksar International Airport (GAF)",
        "Loca_nombre": "Gafsa",
        "Pais_nombre": "Tunisia",
        "Aero_iata": "GAF",
        "latitude": 34.422000885009766,
        "longitude": 8.822500228881836
    },
    {
        "name": "Gabès Matmata International Airport (GAE)",
        "Loca_nombre": "Gabes",
        "Pais_nombre": "Tunisia",
        "Aero_iata": "GAE",
        "latitude": 33.87689971923828,
        "longitude": 10.103300094604492
    },
    {
        "name": "Borj El Amri Airport (\\N)",
        "Loca_nombre": "Bordj El Amri",
        "Pais_nombre": "Tunisia",
        "Aero_iata": "\\N",
        "latitude": 36.72129821777344,
        "longitude": 9.94314956665039
    },
    {
        "name": "Djerba Zarzis International Airport (DJE)",
        "Loca_nombre": "Djerba",
        "Pais_nombre": "Tunisia",
        "Aero_iata": "DJE",
        "latitude": 33.875,
        "longitude": 10.775500297546387
    },
    {
        "name": "El Borma Airport (EBM)",
        "Loca_nombre": "El Borma",
        "Pais_nombre": "Tunisia",
        "Aero_iata": "EBM",
        "latitude": 31.704299926757812,
        "longitude": 9.254619598388672
    },
    {
        "name": "Sfax Thyna International Airport (SFA)",
        "Loca_nombre": "Sfax",
        "Pais_nombre": "Tunisia",
        "Aero_iata": "SFA",
        "latitude": 34.71799850463867,
        "longitude": 10.690999984741211
    },
    {
        "name": "Tozeur Nefta International Airport (TOE)",
        "Loca_nombre": "Tozeur",
        "Pais_nombre": "Tunisia",
        "Aero_iata": "TOE",
        "latitude": 33.939701080322266,
        "longitude": 8.110560417175293
    },
    {
        "name": "Niamtougou International Airport (LRL)",
        "Loca_nombre": "Niatougou",
        "Pais_nombre": "Togo",
        "Aero_iata": "LRL",
        "latitude": 9.767330169677734,
        "longitude": 1.091249942779541
    },
    {
        "name": "Lomé-Tokoin Airport (LFW)",
        "Loca_nombre": "Lome",
        "Pais_nombre": "Togo",
        "Aero_iata": "LFW",
        "latitude": 6.165609836578369,
        "longitude": 1.2545100450515747
    },
    {
        "name": "Antwerp International Airport (Deurne) (ANR)",
        "Loca_nombre": "Antwerp",
        "Pais_nombre": "Belgium",
        "Aero_iata": "ANR",
        "latitude": 51.1893997192,
        "longitude": 4.46027994156
    },
    {
        "name": "Beauvechain Air Base (\\N)",
        "Loca_nombre": "Beauvechain",
        "Pais_nombre": "Belgium",
        "Aero_iata": "\\N",
        "latitude": 50.75859832763672,
        "longitude": 4.768330097198486
    },
    {
        "name": "Kleine Brogel Air Base (\\N)",
        "Loca_nombre": "Kleine Brogel",
        "Pais_nombre": "Belgium",
        "Aero_iata": "\\N",
        "latitude": 51.168301,
        "longitude": 5.47
    },
    {
        "name": "Brussels Airport (BRU)",
        "Loca_nombre": "Brussels",
        "Pais_nombre": "Belgium",
        "Aero_iata": "BRU",
        "latitude": 50.901401519800004,
        "longitude": 4.48443984985
    },
    {
        "name": "Jehonville Air Base (\\N)",
        "Loca_nombre": "Bertrix",
        "Pais_nombre": "Belgium",
        "Aero_iata": "\\N",
        "latitude": 49.891700744628906,
        "longitude": 5.2238898277282715
    },
    {
        "name": "Brussels South Charleroi Airport (CRL)",
        "Loca_nombre": "Charleroi",
        "Pais_nombre": "Belgium",
        "Aero_iata": "CRL",
        "latitude": 50.459202,
        "longitude": 4.45382
    },
    {
        "name": "Chièvres Air Base (\\N)",
        "Loca_nombre": "Chievres",
        "Pais_nombre": "Belgium",
        "Aero_iata": "\\N",
        "latitude": 50.575801849365234,
        "longitude": 3.8310000896453857
    },
    {
        "name": "Koksijde Air Base (\\N)",
        "Loca_nombre": "Koksijde",
        "Pais_nombre": "Belgium",
        "Aero_iata": "\\N",
        "latitude": 51.090301513671875,
        "longitude": 2.652780055999756
    },
    {
        "name": "Florennes Air Base (\\N)",
        "Loca_nombre": "Florennes",
        "Pais_nombre": "Belgium",
        "Aero_iata": "\\N",
        "latitude": 50.2433013916,
        "longitude": 4.64583015442
    },
    {
        "name": "Wevelgem Airport (KJK)",
        "Loca_nombre": "Kortrijk-vevelgem",
        "Pais_nombre": "Belgium",
        "Aero_iata": "KJK",
        "latitude": 50.817199707,
        "longitude": 3.20472002029
    },
    {
        "name": "Liège Airport (LGG)",
        "Loca_nombre": "Liege",
        "Pais_nombre": "Belgium",
        "Aero_iata": "LGG",
        "latitude": 50.63740158081055,
        "longitude": 5.443220138549805
    },
    {
        "name": "Ostend-Bruges International Airport (OST)",
        "Loca_nombre": "Ostend",
        "Pais_nombre": "Belgium",
        "Aero_iata": "OST",
        "latitude": 51.198898315399994,
        "longitude": 2.8622200489
    },
    {
        "name": "Zutendaal Air Base (\\N)",
        "Loca_nombre": "Zutendaal",
        "Pais_nombre": "Belgium",
        "Aero_iata": "\\N",
        "latitude": 50.9474983215332,
        "longitude": 5.590559959411621
    },
    {
        "name": "Brustem Airfield Sint Truiden (\\N)",
        "Loca_nombre": "Sint-truiden",
        "Pais_nombre": "Belgium",
        "Aero_iata": "\\N",
        "latitude": 50.791901,
        "longitude": 5.20167
    },
    {
        "name": "Saint Hubert Air Base (\\N)",
        "Loca_nombre": "St.-hubert",
        "Pais_nombre": "Belgium",
        "Aero_iata": "\\N",
        "latitude": 50.034400939941406,
        "longitude": 5.440810203552246
    },
    {
        "name": "Ursel Air Base (\\N)",
        "Loca_nombre": "Ursel",
        "Pais_nombre": "Belgium",
        "Aero_iata": "\\N",
        "latitude": 51.14419937133789,
        "longitude": 3.475559949874878
    },
    {
        "name": "Weelde Air Base (\\N)",
        "Loca_nombre": "Weelde",
        "Pais_nombre": "Belgium",
        "Aero_iata": "\\N",
        "latitude": 51.394798278808594,
        "longitude": 4.9601898193359375
    },
    {
        "name": "Zoersel (Oostmalle) Airfield (OBL)",
        "Loca_nombre": "Zoersel",
        "Pais_nombre": "Belgium",
        "Aero_iata": "OBL",
        "latitude": 51.264702,
        "longitude": 4.75333
    },
    {
        "name": "Flugplatz Bautzen (\\N)",
        "Loca_nombre": "Bautzen",
        "Pais_nombre": "Germany",
        "Aero_iata": "\\N",
        "latitude": 51.193611,
        "longitude": 14.519722
    },
    {
        "name": "Altenburg-Nobitz Airport (AOC)",
        "Loca_nombre": "Altenburg",
        "Pais_nombre": "Germany",
        "Aero_iata": "AOC",
        "latitude": 50.981945,
        "longitude": 12.506389
    },
    {
        "name": "Dessau Airfield (\\N)",
        "Loca_nombre": "Dessau",
        "Pais_nombre": "Germany",
        "Aero_iata": "\\N",
        "latitude": 51.831694,
        "longitude": 12.190962
    },
    {
        "name": "Eisenhüttenstadt Airfield (\\N)",
        "Loca_nombre": "Eisenhuettenstadt",
        "Pais_nombre": "Germany",
        "Aero_iata": "\\N",
        "latitude": 52.195856,
        "longitude": 14.58753
    },
    {
        "name": "Großenhain Airport (\\N)",
        "Loca_nombre": "Suhl",
        "Pais_nombre": "Germany",
        "Aero_iata": "\\N",
        "latitude": 51.30805587768555,
        "longitude": 13.555556297302246
    },
    {
        "name": "Merseburg Airport (\\N)",
        "Loca_nombre": "Muehlhausen",
        "Pais_nombre": "Germany",
        "Aero_iata": "\\N",
        "latitude": 51.3630556,
        "longitude": 11.9408333
    },
    {
        "name": "Halle-Oppin Airport (\\N)",
        "Loca_nombre": "Halle",
        "Pais_nombre": "Germany",
        "Aero_iata": "\\N",
        "latitude": 51.552223,
        "longitude": 12.053889
    },
    {
        "name": "Riesa-Göhlis Airport (IES)",
        "Loca_nombre": "Riesa",
        "Pais_nombre": "Germany",
        "Aero_iata": "IES",
        "latitude": 51.2936096191,
        "longitude": 13.3561105728
    },
    {
        "name": "Rechlin-Lärz Airport (REB)",
        "Loca_nombre": "Rechlin-laerz",
        "Pais_nombre": "Germany",
        "Aero_iata": "REB",
        "latitude": 53.306388855,
        "longitude": 12.7522220612
    },
    {
        "name": "Strausberg Airport (\\N)",
        "Loca_nombre": "Strausberg",
        "Pais_nombre": "Germany",
        "Aero_iata": "\\N",
        "latitude": 52.5805549621582,
        "longitude": 13.916666984558105
    },
    {
        "name": "Schönhagen Airport (QXH)",
        "Loca_nombre": "Schoenhagen",
        "Pais_nombre": "Germany",
        "Aero_iata": "QXH",
        "latitude": 52.203609,
        "longitude": 13.156389
    },
    {
        "name": "Barth Airport (BBH)",
        "Loca_nombre": "Barth",
        "Pais_nombre": "Germany",
        "Aero_iata": "BBH",
        "latitude": 54.338253,
        "longitude": 12.710515
    },
    {
        "name": "Jena-Schöngleina Airfield (\\N)",
        "Loca_nombre": "Jena",
        "Pais_nombre": "Germany",
        "Aero_iata": "\\N",
        "latitude": 50.915279,
        "longitude": 11.714444
    },
    {
        "name": "Kyritz Airport (\\N)",
        "Loca_nombre": "Kyritz",
        "Pais_nombre": "Germany",
        "Aero_iata": "\\N",
        "latitude": 52.918888092041016,
        "longitude": 12.425277709960938
    },
    {
        "name": "Magdeburg \"City\" Airport (ZMG)",
        "Loca_nombre": "Magdeburg",
        "Pais_nombre": "Germany",
        "Aero_iata": "ZMG",
        "latitude": 52.073612,
        "longitude": 11.626389
    },
    {
        "name": "Rothenburg/Görlitz Airport (\\N)",
        "Loca_nombre": "Rothenburg/ol",
        "Pais_nombre": "Germany",
        "Aero_iata": "\\N",
        "latitude": 51.36333465576172,
        "longitude": 14.949999809265137
    },
    {
        "name": "Anklam Airfield (\\N)",
        "Loca_nombre": "Anklam",
        "Pais_nombre": "Germany",
        "Aero_iata": "\\N",
        "latitude": 53.832779,
        "longitude": 13.668611
    },
    {
        "name": "Cottbus-Drewitz Airport (CBU)",
        "Loca_nombre": "Cottbus",
        "Pais_nombre": "Germany",
        "Aero_iata": "CBU",
        "latitude": 51.889442,
        "longitude": 14.531944
    },
    {
        "name": "Kamenz Airport (\\N)",
        "Loca_nombre": "Kamenz",
        "Pais_nombre": "Germany",
        "Aero_iata": "\\N",
        "latitude": 51.29694366455078,
        "longitude": 14.1274995803833
    },
    {
        "name": "Berlin-Schönefeld Airport (SXF)",
        "Loca_nombre": "Berlin",
        "Pais_nombre": "Germany",
        "Aero_iata": "SXF",
        "latitude": 52.380001,
        "longitude": 13.5225
    },
    {
        "name": "Dresden Airport (DRS)",
        "Loca_nombre": "Dresden",
        "Pais_nombre": "Germany",
        "Aero_iata": "DRS",
        "latitude": 51.1328010559082,
        "longitude": 13.767200469970703
    },
    {
        "name": "Erfurt Airport (ERF)",
        "Loca_nombre": "Erfurt",
        "Pais_nombre": "Germany",
        "Aero_iata": "ERF",
        "latitude": 50.979801177978516,
        "longitude": 10.958100318908691
    },
    {
        "name": "Frankfurt am Main Airport (FRA)",
        "Loca_nombre": "Frankfurt",
        "Pais_nombre": "Germany",
        "Aero_iata": "FRA",
        "latitude": 50.033333,
        "longitude": 8.570556
    },
    {
        "name": "Münster Osnabrück Airport (FMO)",
        "Loca_nombre": "Munster",
        "Pais_nombre": "Germany",
        "Aero_iata": "FMO",
        "latitude": 52.134601593,
        "longitude": 7.68483018875
    },
    {
        "name": "Hamburg Airport (HAM)",
        "Loca_nombre": "Hamburg",
        "Pais_nombre": "Germany",
        "Aero_iata": "HAM",
        "latitude": 53.630401611328,
        "longitude": 9.9882297515869
    },
    {
        "name": "Berlin-Tempelhof International Airport (THF)",
        "Loca_nombre": "Berlin",
        "Pais_nombre": "Germany",
        "Aero_iata": "THF",
        "latitude": 52.472999572753906,
        "longitude": 13.403900146484375
    },
    {
        "name": "Cologne Bonn Airport (CGN)",
        "Loca_nombre": "Cologne",
        "Pais_nombre": "Germany",
        "Aero_iata": "CGN",
        "latitude": 50.8658981323,
        "longitude": 7.1427397728
    },
    {
        "name": "Düsseldorf Airport (DUS)",
        "Loca_nombre": "Duesseldorf",
        "Pais_nombre": "Germany",
        "Aero_iata": "DUS",
        "latitude": 51.289501,
        "longitude": 6.76678
    },
    {
        "name": "Munich Airport (MUC)",
        "Loca_nombre": "Munich",
        "Pais_nombre": "Germany",
        "Aero_iata": "MUC",
        "latitude": 48.353802,
        "longitude": 11.7861
    },
    {
        "name": "Nuremberg Airport (NUE)",
        "Loca_nombre": "Nuernberg",
        "Pais_nombre": "Germany",
        "Aero_iata": "NUE",
        "latitude": 49.498699,
        "longitude": 11.078056
    },
    {
        "name": "Leipzig/Halle Airport (LEJ)",
        "Loca_nombre": "Leipzig",
        "Pais_nombre": "Germany",
        "Aero_iata": "LEJ",
        "latitude": 51.423889,
        "longitude": 12.236389
    },
    {
        "name": "Saarbrücken Airport (SCN)",
        "Loca_nombre": "Saarbruecken",
        "Pais_nombre": "Germany",
        "Aero_iata": "SCN",
        "latitude": 49.214599609400004,
        "longitude": 7.10950994492
    },
    {
        "name": "Stuttgart Airport (STR)",
        "Loca_nombre": "Stuttgart",
        "Pais_nombre": "Germany",
        "Aero_iata": "STR",
        "latitude": 48.689899444599995,
        "longitude": 9.22196006775
    },
    {
        "name": "Berlin-Tegel Airport (TXL)",
        "Loca_nombre": "Berlin",
        "Pais_nombre": "Germany",
        "Aero_iata": "TXL",
        "latitude": 52.5597,
        "longitude": 13.2877
    },
    {
        "name": "Hannover Airport (HAJ)",
        "Loca_nombre": "Hannover",
        "Pais_nombre": "Germany",
        "Aero_iata": "HAJ",
        "latitude": 52.461101532,
        "longitude": 9.685079574580001
    },
    {
        "name": "Bremen Airport (BRE)",
        "Loca_nombre": "Bremen",
        "Pais_nombre": "Germany",
        "Aero_iata": "BRE",
        "latitude": 53.0475006104,
        "longitude": 8.78666973114
    },
    {
        "name": "Frankfurt-Egelsbach Airport (QEF)",
        "Loca_nombre": "Egelsbach",
        "Pais_nombre": "Germany",
        "Aero_iata": "QEF",
        "latitude": 49.959999,
        "longitude": 8.645833
    },
    {
        "name": "Frankfurt-Hahn Airport (HHN)",
        "Loca_nombre": "Hahn",
        "Pais_nombre": "Germany",
        "Aero_iata": "HHN",
        "latitude": 49.9487,
        "longitude": 7.26389
    },
    {
        "name": "Mannheim-City Airport (MHG)",
        "Loca_nombre": "Mannheim",
        "Pais_nombre": "Germany",
        "Aero_iata": "MHG",
        "latitude": 49.473057,
        "longitude": 8.514167
    },
    {
        "name": "Allendorf/Eder Airport (\\N)",
        "Loca_nombre": "Allendorf",
        "Pais_nombre": "Germany",
        "Aero_iata": "\\N",
        "latitude": 51.03499984741211,
        "longitude": 8.680832862854004
    },
    {
        "name": "Worms Airport (\\N)",
        "Loca_nombre": "Worms",
        "Pais_nombre": "Germany",
        "Aero_iata": "\\N",
        "latitude": 49.606945,
        "longitude": 8.368333
    },
    {
        "name": "Mainz-Finthen Airport (\\N)",
        "Loca_nombre": "Mainz",
        "Pais_nombre": "Germany",
        "Aero_iata": "\\N",
        "latitude": 49.967499,
        "longitude": 8.147222
    },
    {
        "name": "Eisenach-Kindel Airport (EIB)",
        "Loca_nombre": "Eisenach",
        "Pais_nombre": "Germany",
        "Aero_iata": "EIB",
        "latitude": 50.991604,
        "longitude": 10.47973
    },
    {
        "name": "Siegerland Airport (SGE)",
        "Loca_nombre": "Siegerland",
        "Pais_nombre": "Germany",
        "Aero_iata": "SGE",
        "latitude": 50.707698822021484,
        "longitude": 8.082969665527344
    },
    {
        "name": "Hamburg-Finkenwerder Airport (XFW)",
        "Loca_nombre": "Hamburg",
        "Pais_nombre": "Germany",
        "Aero_iata": "XFW",
        "latitude": 53.5352783203125,
        "longitude": 9.835556030273438
    },
    {
        "name": "Kiel-Holtenau Airport (KEL)",
        "Loca_nombre": "Kiel",
        "Pais_nombre": "Germany",
        "Aero_iata": "KEL",
        "latitude": 54.37944412231445,
        "longitude": 10.145277976989746
    },
    {
        "name": "Lübeck Blankensee Airport (LBC)",
        "Loca_nombre": "Luebeck",
        "Pais_nombre": "Germany",
        "Aero_iata": "LBC",
        "latitude": 53.8054008484,
        "longitude": 10.7192001343
    },
    {
        "name": "Flugplatz Dahlemer Binz (\\N)",
        "Loca_nombre": "Dahlemer Binz",
        "Pais_nombre": "Germany",
        "Aero_iata": "\\N",
        "latitude": 50.405555725,
        "longitude": 6.5288891792
    },
    {
        "name": "Meinerzhagen Airport (\\N)",
        "Loca_nombre": "Meinerzhagen",
        "Pais_nombre": "Germany",
        "Aero_iata": "\\N",
        "latitude": 51.099998474121094,
        "longitude": 7.599999904632568
    },
    {
        "name": "Arnsberg-Menden Airport (\\N)",
        "Loca_nombre": "Arnsberg",
        "Pais_nombre": "Germany",
        "Aero_iata": "\\N",
        "latitude": 51.483890533447266,
        "longitude": 7.8983330726623535
    },
    {
        "name": "Essen Mulheim Airport (ESS)",
        "Loca_nombre": "Essen",
        "Pais_nombre": "Germany",
        "Aero_iata": "ESS",
        "latitude": 51.40230178833008,
        "longitude": 6.9373297691345215
    },
    {
        "name": "Bielefeld Airport (BFE)",
        "Loca_nombre": "Bielefeld",
        "Pais_nombre": "Germany",
        "Aero_iata": "BFE",
        "latitude": 51.964722,
        "longitude": 8.544444
    },
    {
        "name": "Mönchengladbach Airport (MGL)",
        "Loca_nombre": "Moenchengladbach",
        "Pais_nombre": "Germany",
        "Aero_iata": "MGL",
        "latitude": 51.230278,
        "longitude": 6.504444
    },
    {
        "name": "Paderborn Lippstadt Airport (PAD)",
        "Loca_nombre": "Paderborn",
        "Pais_nombre": "Germany",
        "Aero_iata": "PAD",
        "latitude": 51.614101409899995,
        "longitude": 8.616319656369999
    },
    {
        "name": "Stadtlohn-Vreden Airport (\\N)",
        "Loca_nombre": "Stadtlohn",
        "Pais_nombre": "Germany",
        "Aero_iata": "\\N",
        "latitude": 51.99583435058594,
        "longitude": 6.8405561447143555
    },
    {
        "name": "Dortmund Airport (DTM)",
        "Loca_nombre": "Dortmund",
        "Pais_nombre": "Germany",
        "Aero_iata": "DTM",
        "latitude": 51.51829910279999,
        "longitude": 7.61223983765
    },
    {
        "name": "Augsburg Airport (AGB)",
        "Loca_nombre": "Augsburg",
        "Pais_nombre": "Germany",
        "Aero_iata": "AGB",
        "latitude": 48.425278,
        "longitude": 10.931667
    },
    {
        "name": "Biberach a.d. Riß Airfield (\\N)",
        "Loca_nombre": "Biberach",
        "Pais_nombre": "Germany",
        "Aero_iata": "\\N",
        "latitude": 48.111111,
        "longitude": 9.762778
    },
    {
        "name": "Eggenfelden Airport (\\N)",
        "Loca_nombre": "Eggenfelden",
        "Pais_nombre": "Germany",
        "Aero_iata": "\\N",
        "latitude": 48.39611053466797,
        "longitude": 12.723610877990723
    },
    {
        "name": "Mindelheim-Mattsies Airfield (\\N)",
        "Loca_nombre": "Mindelheim",
        "Pais_nombre": "Germany",
        "Aero_iata": "\\N",
        "latitude": 48.106945,
        "longitude": 10.525
    },
    {
        "name": "Oberpfaffenhofen Airport (OBF)",
        "Loca_nombre": "Oberpfaffenhofen",
        "Pais_nombre": "Germany",
        "Aero_iata": "OBF",
        "latitude": 48.081402,
        "longitude": 11.2831
    },
    {
        "name": "Straubing Airport (RBM)",
        "Loca_nombre": "Straubing",
        "Pais_nombre": "Germany",
        "Aero_iata": "RBM",
        "latitude": 48.90083312988281,
        "longitude": 12.516667366027832
    },
    {
        "name": "Vilshofen Airport (\\N)",
        "Loca_nombre": "Vilshofen",
        "Pais_nombre": "Germany",
        "Aero_iata": "\\N",
        "latitude": 48.6349983215332,
        "longitude": 13.195555686950684
    },
    {
        "name": "Leutkirch-Unterzeil Airport (\\N)",
        "Loca_nombre": "Leutkirch",
        "Pais_nombre": "Germany",
        "Aero_iata": "\\N",
        "latitude": 47.858890533447266,
        "longitude": 10.014166831970215
    },
    {
        "name": "Friedrichshafen Airport (FDH)",
        "Loca_nombre": "Friedrichshafen",
        "Pais_nombre": "Germany",
        "Aero_iata": "FDH",
        "latitude": 47.671298980699994,
        "longitude": 9.51148986816
    },
    {
        "name": "Schwerin Parchim Airport (SZW)",
        "Loca_nombre": "Parchim",
        "Pais_nombre": "Germany",
        "Aero_iata": "SZW",
        "latitude": 53.426998,
        "longitude": 11.7834
    },
    {
        "name": "Stendal-Borstel Airport (\\N)",
        "Loca_nombre": "Stendal",
        "Pais_nombre": "Germany",
        "Aero_iata": "\\N",
        "latitude": 52.62888717651367,
        "longitude": 11.818611145019531
    },
    {
        "name": "Aalen-Heidenheim/Elchingen Airport (\\N)",
        "Loca_nombre": "Aalen-heidenheim",
        "Pais_nombre": "Germany",
        "Aero_iata": "\\N",
        "latitude": 48.77777862548828,
        "longitude": 10.264721870422363
    },
    {
        "name": "Bayreuth Airport (BYU)",
        "Loca_nombre": "Bayreuth",
        "Pais_nombre": "Germany",
        "Aero_iata": "BYU",
        "latitude": 49.985001,
        "longitude": 11.64
    },
    {
        "name": "Burg Feuerstein Airport (URD)",
        "Loca_nombre": "Burg Feuerstein",
        "Pais_nombre": "Germany",
        "Aero_iata": "URD",
        "latitude": 49.794166564941,
        "longitude": 11.133610725403
    },
    {
        "name": "Hof-Plauen Airport (HOQ)",
        "Loca_nombre": "Hof",
        "Pais_nombre": "Germany",
        "Aero_iata": "HOQ",
        "latitude": 50.288612365722656,
        "longitude": 11.856389045715332
    },
    {
        "name": "Haßfurt-Schweinfurt Airport (\\N)",
        "Loca_nombre": "Hassfurt",
        "Pais_nombre": "Germany",
        "Aero_iata": "\\N",
        "latitude": 50.0180549621582,
        "longitude": 10.529443740844727
    },
    {
        "name": "Koblenz-Winningen Airfield (\\N)",
        "Loca_nombre": "Koblenz",
        "Pais_nombre": "Germany",
        "Aero_iata": "\\N",
        "latitude": 50.325558,
        "longitude": 7.528611
    },
    {
        "name": "Trier-Föhren Airport (\\N)",
        "Loca_nombre": "Trier",
        "Pais_nombre": "Germany",
        "Aero_iata": "\\N",
        "latitude": 49.863888,
        "longitude": 6.7875
    },
    {
        "name": "Speyer Airfield (\\N)",
        "Loca_nombre": "Speyer",
        "Pais_nombre": "Germany",
        "Aero_iata": "\\N",
        "latitude": 49.304722,
        "longitude": 8.451389
    },
    {
        "name": "Zweibrücken Airport (ZQW)",
        "Loca_nombre": "Zweibruecken",
        "Pais_nombre": "Germany",
        "Aero_iata": "ZQW",
        "latitude": 49.2094,
        "longitude": 7.40056
    },
    {
        "name": "Donaueschingen-Villingen Airport (ZQL)",
        "Loca_nombre": "Donaueschingen",
        "Pais_nombre": "Germany",
        "Aero_iata": "ZQL",
        "latitude": 47.97333145139999,
        "longitude": 8.52222156525
    },
    {
        "name": "Freiburg i. Br. Airport (\\N)",
        "Loca_nombre": "Freiburg",
        "Pais_nombre": "Germany",
        "Aero_iata": "\\N",
        "latitude": 48.022777557400005,
        "longitude": 7.83249998093
    },
    {
        "name": "Mengen-Hohentengen Airport (\\N)",
        "Loca_nombre": "Mengen",
        "Pais_nombre": "Germany",
        "Aero_iata": "\\N",
        "latitude": 48.053890228271484,
        "longitude": 9.372777938842773
    },
    {
        "name": "Adolf Würth Airport (\\N)",
        "Loca_nombre": "Schwaebisch Hall",
        "Pais_nombre": "Germany",
        "Aero_iata": "\\N",
        "latitude": 49.1183319092,
        "longitude": 9.783888816829998
    },
    {
        "name": "Finsterwalde/Schacksdorf Airport (\\N)",
        "Loca_nombre": "Soest",
        "Pais_nombre": "Germany",
        "Aero_iata": "\\N",
        "latitude": 51.607498,
        "longitude": 13.743611
    },
    {
        "name": "Braunschweig-Wolfsburg Airport (BWE)",
        "Loca_nombre": "Braunschweig",
        "Pais_nombre": "Germany",
        "Aero_iata": "BWE",
        "latitude": 52.319199,
        "longitude": 10.5561
    },
    {
        "name": "Kassel-Calden Airport (KSF)",
        "Loca_nombre": "Kassel",
        "Pais_nombre": "Germany",
        "Aero_iata": "KSF",
        "latitude": 51.417273,
        "longitude": 9.384967
    },
    {
        "name": "Hildesheim Airport (\\N)",
        "Loca_nombre": "Hildesheim",
        "Pais_nombre": "Germany",
        "Aero_iata": "\\N",
        "latitude": 52.18138885498047,
        "longitude": 9.946389198303223
    },
    {
        "name": "Bremerhaven Airport (BRV)",
        "Loca_nombre": "Bremerhaven",
        "Pais_nombre": "Germany",
        "Aero_iata": "BRV",
        "latitude": 53.506943,
        "longitude": 8.572778
    },
    {
        "name": "Emden Airport (EME)",
        "Loca_nombre": "Emden",
        "Pais_nombre": "Germany",
        "Aero_iata": "EME",
        "latitude": 53.391109,
        "longitude": 7.2275
    },
    {
        "name": "Leer-Papenburg Airport (\\N)",
        "Loca_nombre": "Leer",
        "Pais_nombre": "Germany",
        "Aero_iata": "\\N",
        "latitude": 53.271942138671875,
        "longitude": 7.441667079925537
    },
    {
        "name": "Wilhelmshaven-Mariensiel Airport (WVN)",
        "Loca_nombre": "Wilhelmshaven",
        "Pais_nombre": "Germany",
        "Aero_iata": "WVN",
        "latitude": 53.502220153808594,
        "longitude": 8.05222225189209
    },
    {
        "name": "Borkum Airport (BMK)",
        "Loca_nombre": "Borkum",
        "Pais_nombre": "Germany",
        "Aero_iata": "BMK",
        "latitude": 53.59639,
        "longitude": 6.709167
    },
    {
        "name": "Norderney Airport (NRD)",
        "Loca_nombre": "Norderney",
        "Pais_nombre": "Germany",
        "Aero_iata": "NRD",
        "latitude": 53.70694351196289,
        "longitude": 7.230000019073486
    },
    {
        "name": "Flensburg-Schäferhaus Airport (FLF)",
        "Loca_nombre": "Flensburg",
        "Pais_nombre": "Germany",
        "Aero_iata": "FLF",
        "latitude": 54.77333450317383,
        "longitude": 9.378889083862305
    },
    {
        "name": "Rendsburg-Schachtholm Airport (\\N)",
        "Loca_nombre": "Rendsburg",
        "Pais_nombre": "Germany",
        "Aero_iata": "\\N",
        "latitude": 54.220001220703125,
        "longitude": 9.599444389343262
    },
    {
        "name": "Westerland Sylt Airport (GWT)",
        "Loca_nombre": "Westerland",
        "Pais_nombre": "Germany",
        "Aero_iata": "GWT",
        "latitude": 54.9132003784,
        "longitude": 8.34047031403
    },
    {
        "name": "Ämari Air Base (\\N)",
        "Loca_nombre": "Armari Air Force Base",
        "Pais_nombre": "Estonia",
        "Aero_iata": "\\N",
        "latitude": 59.26029968261719,
        "longitude": 24.208499908447266
    },
    {
        "name": "Kärdla Airport (KDL)",
        "Loca_nombre": "Kardla",
        "Pais_nombre": "Estonia",
        "Aero_iata": "KDL",
        "latitude": 58.99079895019531,
        "longitude": 22.830699920654297
    },
    {
        "name": "Kuressaare Airport (URE)",
        "Loca_nombre": "Kuressaare",
        "Pais_nombre": "Estonia",
        "Aero_iata": "URE",
        "latitude": 58.22990036010742,
        "longitude": 22.50950050354004
    },
    {
        "name": "Pärnu Airport (EPU)",
        "Loca_nombre": "Parnu",
        "Pais_nombre": "Estonia",
        "Aero_iata": "EPU",
        "latitude": 58.41899871826172,
        "longitude": 24.47279930114746
    },
    {
        "name": "Lennart Meri Tallinn Airport (TLL)",
        "Loca_nombre": "Tallinn-ulemiste International",
        "Pais_nombre": "Estonia",
        "Aero_iata": "TLL",
        "latitude": 59.41329956049999,
        "longitude": 24.832799911499997
    },
    {
        "name": "Tartu Airport (TAY)",
        "Loca_nombre": "Tartu",
        "Pais_nombre": "Estonia",
        "Aero_iata": "TAY",
        "latitude": 58.3074989319,
        "longitude": 26.690399169900004
    },
    {
        "name": "Enontekio Airport (ENF)",
        "Loca_nombre": "Enontekio",
        "Pais_nombre": "Finland",
        "Aero_iata": "ENF",
        "latitude": 68.362602233887,
        "longitude": 23.424299240112
    },
    {
        "name": "Eura Airport (\\N)",
        "Loca_nombre": "Eura",
        "Pais_nombre": "Finland",
        "Aero_iata": "\\N",
        "latitude": 61.1161003112793,
        "longitude": 22.201400756835938
    },
    {
        "name": "Halli Airport (KEV)",
        "Loca_nombre": "Halli",
        "Pais_nombre": "Finland",
        "Aero_iata": "KEV",
        "latitude": 61.856039,
        "longitude": 24.786686
    },
    {
        "name": "Helsinki Malmi Airport (HEM)",
        "Loca_nombre": "Helsinki",
        "Pais_nombre": "Finland",
        "Aero_iata": "HEM",
        "latitude": 60.254600524902344,
        "longitude": 25.042800903320312
    },
    {
        "name": "Helsinki Vantaa Airport (HEL)",
        "Loca_nombre": "Helsinki",
        "Pais_nombre": "Finland",
        "Aero_iata": "HEL",
        "latitude": 60.317199707031,
        "longitude": 24.963300704956
    },
    {
        "name": "Hameenkyro Airport (\\N)",
        "Loca_nombre": "Hameenkyro",
        "Pais_nombre": "Finland",
        "Aero_iata": "\\N",
        "latitude": 61.689701080322266,
        "longitude": 23.073699951171875
    },
    {
        "name": "Hanko Airport (\\N)",
        "Loca_nombre": "Hanko",
        "Pais_nombre": "Finland",
        "Aero_iata": "\\N",
        "latitude": 59.848899841308594,
        "longitude": 23.083599090576172
    },
    {
        "name": "Hyvinkää Airfield (HYV)",
        "Loca_nombre": "Hyvinkaa",
        "Pais_nombre": "Finland",
        "Aero_iata": "HYV",
        "latitude": 60.6543998718,
        "longitude": 24.8810997009
    },
    {
        "name": "Kiikala Airport (\\N)",
        "Loca_nombre": "Kikala",
        "Pais_nombre": "Finland",
        "Aero_iata": "\\N",
        "latitude": 60.4625015259,
        "longitude": 23.6525001526
    },
    {
        "name": "Immola Airport (\\N)",
        "Loca_nombre": "Immola",
        "Pais_nombre": "Finland",
        "Aero_iata": "\\N",
        "latitude": 61.24919891357422,
        "longitude": 28.90369987487793
    },
    {
        "name": "Kitee Airport (KTQ)",
        "Loca_nombre": "Kitee",
        "Pais_nombre": "Finland",
        "Aero_iata": "KTQ",
        "latitude": 62.1661,
        "longitude": 30.073601
    },
    {
        "name": "Ivalo Airport (IVL)",
        "Loca_nombre": "Ivalo",
        "Pais_nombre": "Finland",
        "Aero_iata": "IVL",
        "latitude": 68.607299804688,
        "longitude": 27.405300140381
    },
    {
        "name": "Joensuu Airport (JOE)",
        "Loca_nombre": "Joensuu",
        "Pais_nombre": "Finland",
        "Aero_iata": "JOE",
        "latitude": 62.662899017334,
        "longitude": 29.607500076294
    },
    {
        "name": "Jyvaskyla Airport (JYV)",
        "Loca_nombre": "Jyvaskyla",
        "Pais_nombre": "Finland",
        "Aero_iata": "JYV",
        "latitude": 62.399501800537,
        "longitude": 25.678300857544
    },
    {
        "name": "Kauhava Airport (KAU)",
        "Loca_nombre": "Kauhava",
        "Pais_nombre": "Finland",
        "Aero_iata": "KAU",
        "latitude": 63.127102,
        "longitude": 23.051399
    },
    {
        "name": "Kemi-Tornio Airport (KEM)",
        "Loca_nombre": "Kemi",
        "Pais_nombre": "Finland",
        "Aero_iata": "KEM",
        "latitude": 65.778701782227,
        "longitude": 24.582099914551
    },
    {
        "name": "Kajaani Airport (KAJ)",
        "Loca_nombre": "Kajaani",
        "Pais_nombre": "Finland",
        "Aero_iata": "KAJ",
        "latitude": 64.285499572754,
        "longitude": 27.692399978638
    },
    {
        "name": "Kauhajoki Airport (KHJ)",
        "Loca_nombre": "Kauhajoki",
        "Pais_nombre": "Finland",
        "Aero_iata": "KHJ",
        "latitude": 62.4625015259,
        "longitude": 22.3931007385
    },
    {
        "name": "Kokkola-Pietarsaari Airport (KOK)",
        "Loca_nombre": "Kruunupyy",
        "Pais_nombre": "Finland",
        "Aero_iata": "KOK",
        "latitude": 63.721199035645,
        "longitude": 23.143100738525
    },
    {
        "name": "Kemijarvi Airport (\\N)",
        "Loca_nombre": "Kemijarvi",
        "Pais_nombre": "Finland",
        "Aero_iata": "\\N",
        "latitude": 66.712898,
        "longitude": 27.156799
    },
    {
        "name": "Kuusamo Airport (KAO)",
        "Loca_nombre": "Kuusamo",
        "Pais_nombre": "Finland",
        "Aero_iata": "KAO",
        "latitude": 65.987602233887,
        "longitude": 29.239400863647
    },
    {
        "name": "Kittilä Airport (KTT)",
        "Loca_nombre": "Kittila",
        "Pais_nombre": "Finland",
        "Aero_iata": "KTT",
        "latitude": 67.700996398926,
        "longitude": 24.846799850464
    },
    {
        "name": "Kuopio Airport (KUO)",
        "Loca_nombre": "Kuopio",
        "Pais_nombre": "Finland",
        "Aero_iata": "KUO",
        "latitude": 63.007099151611,
        "longitude": 27.797800064087
    },